Sector Name,Department,Property Centre,Region,ePIMS Property Ref,Department Building Ref,Building Name,Road,Postcode,Latitude,Longitude,Building Floor Area,Floor Type Description,Building Type,Construction Date,Building Usage,Number of Floors,Refurbishment Date,Listed Building Description,DEC Certificate Reference Number,DEC Property Reference Number,DEC Operational Rating,DEC Operational Rating Value,EPC Certificate Reference,EPC Property Reference,EPC Issue Date,EPC Asset Rating,EPC Asset Rating Value,Occupied NIA,Total Office Based Staff and Contractors (FTE),Number of Workstations,Total occupancy cost,Total property cost,Total Property cost by NIA,Total property cost by Occupied NIA,Total property cost per FTE,Total Occupancy Cost per FTE,Sqm per office based FTE,Energy consumption (Kwh),Water Consumption (M3),Waste (tonnes),CO2  equivalent (tonnes),CO2  per FTE (tonnes),Non recycled waste per FTE (tonnes),,
Central Civil Estate,Attorney General's Office (LOD),AGO - ATTORNEY GENERAL'S OFFICE,London,402688,1,20 vICTORIA STREET,VICTORIA STREET,SW1H 0NZ,51.49884182,-0.131864239,"1,157.00",Concrete,Not Known,Unknown,Office,10,,Not BSAHI,0290-5979-0107-4711-6064,'560796140001,G,171,,,,,,910,42,46,,"$941,446.00 ",$813.70 ,"$1,035.00 ","$22,415.00 ",,21.7,"287,313.00",1447,5,154,3.67,,, 
Central Civil Estate,Attorney General's Office (LOD),AGO - TREASURY SOLICITOR,South West,184120,1,RIVERSIDE CHAMBERS,CASTLE STREET,TA1 4AP,51.01645221,-3.11106155,"2,799.84",Concrete,Top Quality but NOT Air Conditioned,1990  -  1999,Office,3,,,,,,,,,,,,,,,,,,,,,,,,,,,,,
Central Civil Estate,Attorney General's Office (LOD),AGO - TREASURY SOLICITOR,London,202708,Kingsway Block,TOWER BLOCK,KEMBLE STREET,WC2B 4TS,51.51477744,-0.119538165,"11,117.52",Not Known,Top Quality but NOT Air Conditioned,1960  -  1969,Office,16,31-Jul-05,Not BSAHI,,,,,,,,,,11118,843,679,,"$7,002,856.00 ",$629.89 ,$630.00 ,"$8,307.00 ",,13.2,"2,764,316.00",5938,114,1256,1.49,0.069,,
Central Civil Estate,Cabinet Office,CO - EX COI,London,33066,1,HERCULES HOUSE,HERCULES ROAD,SE1 7DU,51.49824287,-0.113548195,"10,001.00",Concrete,Standard Office Building,1950  -  1959,Office,11,,,0230-4931-0140-5260-0090,'494310650000,G,201,,,,,,6501,457,700,,"$2,224,195.00 ",$222.40 ,$342.00 ,"$4,867.00 ",,14.2,"2,176,561.00",5691,104,983,2.15,0.093,,
Central Civil Estate,Cabinet Office,CO - FINANCIAL AND ESTATE MANAGEMENT,London,19965,1,ADMIRALTY ARCH,THE MALL,SW1A 2WH,51.50662792,-0.12839001,"7,383.00",Concrete,"Average, NOT Air Conditioned, Good but Older",Pre 1900,Office,7,,Grade II,0998-2069-1510-5500-4203,'481590590000,D,95,,,,,,7383,449,476,"$3,025,568 ","$2,471,825.00 ",$334.80 ,$335.00 ,"$5,505.00 ","$6,738 ",16.4,"2,078,097.00",2876,,1116,2.49,,,
Central Civil Estate,Cabinet Office,CO - FINANCIAL AND ESTATE MANAGEMENT,London,20121,1, Great Scotland Yard,GREAT SCOTLAND YARD,SW1A 2HJ,51.5065485,-0.125669784,"1,037.90",Concrete,Poorer Quality,Unknown,Specialist,,,Not BSAHI,,, ,,,,,,,,,,,,,,,,,,,,,,,,
Central Civil Estate,Cabinet Office,CO - FINANCIAL AND ESTATE MANAGEMENT,London,20925,1,ADMIRALTY HOUSE,WHITEHALL,SW1A 2BL,51.50560118,-0.127164033,"1,367.00",Concrete,"Average, NOT Air Conditioned, Good but Older",Pre 1900,Office,,,,0960-7956-0170-1330-5054,'757565310000,D,77,,,,,,,,,,,,,,,,,,,,,,,
Central Civil Estate,Cabinet Office,CO - FINANCIAL AND ESTATE MANAGEMENT,London,20932,1, Whitehall 36,WHITEHALL,SW1A 2AY,51.50536615,-0.127087213,"2,030.04",Concrete,"Average, NOT Air Conditioned, Good but Older",Pre 1900,Office,5,,Grade II,0260-2979--0172-3560-8030,'237798630000,D,86,,,,,,2030,65,64,"$889,752 ","$747,756.00 ",$368.35 ,$368.00 ,"$11,504.00 ","$13,688 ",31.2,"185,459.00",513,,100,1.53,,,
Central Civil Estate,Cabinet Office,CO - FINANCIAL AND ESTATE MANAGEMENT,London,20987,1, Downing Street,DOWNING STREET,SW1A 2AS,51.50349576,-0.127653808,"4,066.20",Concrete,"Good to Average, Air Conditioned",Pre 1900,Office,5,,Grade 1,9762-1006-0320-0200-5925,'720392060000,D,82,,,,,,2877,224,189,,"$1,471,531.00 ",$361.89 ,$511.00 ,"$6,569.00 ",,12.8,"1,207,443.00",2202,,520,2.32,,,
Central Civil Estate,Cabinet Office,CO - FINANCIAL AND ESTATE MANAGEMENT,London,21012,1, 70WH,WHITEHALL,SW1A 2AS,51.50354165,-0.126585662,"8,610.00",Concrete,"Average, NOT Air Conditioned, Good but Older",Pre 1900,Office,7,01-Jan-09,Grade 1,,,,,,,,,,5050,459,475,,"$1,540,982.00 ",$178.98 ,$305.00 ,"$3,357.00 ",,11,"1,151,937.00",6071,,619,1.35,,,
Central Civil Estate,Cabinet Office,CO - FINANCIAL AND ESTATE MANAGEMENT,Yorkshire and the Humber,64336,1,CIVIL DEFENCE COLLEGE HOME OFFICE,THE HAWKHILLS,YO61 3EG,54.10084048,-1.178613685,"6,428.10",Concrete,Standard Office Building,Unknown,Specialist,,,Not BSAHI,0041-0010-7259-3498-9006,'435290470001,C,73,,,,,,,,,,,,,,,,,,,,,,,
Central Civil Estate,Cabinet Office,CO - FINANCIAL AND ESTATE MANAGEMENT,London,102345,1,Great Smith Street,GREAT SMITH STREET,SW1P 3BJ,51.4972138,-0.129020593,"2,925.42",Concrete,"Average, NOT Air Conditioned, Good but Older",1926  -  1949,Office,6,01-Jan-00,Not BSAHI,0260-6926-0122-8540-6040,'642266480000,D,98,,,,,,2293,105,130,"$2,537,568 ","$2,323,218.00 ",$794.15 ,"$1,013.00 ","$22,126.00 ","$24,167 ",21.8,"580,864.00",665,,260,2.47,,,
Central Civil Estate,Cabinet Office,CO - FINANCIAL AND ESTATE MANAGEMENT,London,109095,B01,GREAT GEORGE STREET,GREAT GEORGE STREET,SW1P 3AE,51.50097462,-0.128578407,"1,181.00",Not Known,Standard Office Building,Unknown,Office,5,,Not BSAHI,,'706495900000, ,,,,,,,,,,,,,,,,,,,,,,,,
Central Civil Estate,Cabinet Office,CO - FINANCIAL AND ESTATE MANAGEMENT,East of England,230911,1,ROSEBERY COURT,ST ANDREWS BUSINESS PARK,NR7 0HS,52.62896837,1.365281543,"6,574.30",Not Known,"Top Quality, Air Conditioned",1990  -  1999,Office,3,,Not BSAHI,,,,,,,,,,4054,156,195,"$2,069,596 ","$2,069,596.00 ",$314.80 ,$511.00 ,"$13,267.00 ","$13,267 ",26,"2,035,891.00",1336,93,834,5.34,0.073,,
Central Civil Estate,Cabinet Office,CO - FINANCIAL AND ESTATE MANAGEMENT,South East,281735,1,National School for Goverment,LARCH AVENUE,SL5 0QE,51.40207548,-0.642399397,"18,591.00",Concrete,Standard Office Building,Unknown,Office,3,,Not BSAHI,,'992406120000, ,,,,,,,1850,156,209,,"$625,110.00 ",$33.62 ,$338.00 ,"$4,007.00 ",,11.9,"237,597.00",,,128,0.82,,,
Central Civil Estate,Cabinet Office,CO - FINANCIAL AND ESTATE MANAGEMENT,London,620838,1,67 TUFTON STREET,TUFTON STREET,SW1P 3QS,51.49547136,-0.128025866,"2,087.29",Concrete,"Average, NOT Air Conditioned, Good but Older",1900  -  1925,Office,7,,Not BSAHI,9424-1066-0924-0300-5721,'444973620000,C,103,,,,,,,,,,,,,,,,,,,,,,,
Central Civil Estate,Cabinet Office,CO - GOVERNMENT PROCUREMENT SERVICE ,London,402736,1,RUSI BUILDING,WHITEHALL,SW1A 2ET,51.50434816,-0.12584653,83.1,Concrete,"Average, NOT Air Conditioned, Good but Older",Pre 1900,Specialist,,,,,,,,,,,,,,,,,,,,,,,,,,,,,,
Central Civil Estate,Cabinet Office,CO - GOVERNMENT PROCUREMENT SERVICE ,London,405416,BOILER HOUSE - W'HALL DISTRICT HEATING SYSTEM,WHITEHALL DISTRICT HEATING SYS,,SW1A 2HB,51.50524407,-0.125074883,"1,670.00",Not Known,Not Known,Unknown,Specialist,,,,,,,,,,,,,,,,,,,,,,,,,,,,,,
Central Civil Estate,Cabinet Office,CO - RESIDUAL ESTATE,South East,171113,1,Trust 250 Year Lease Holding,BLETCHLEY PARK,MK3 6EB,51.99894687,-0.740326496,"17,155.90",Not Known,Poorer Quality,1926  -  1949,Specialist,,,,,,,,,,,,,,,,,,,,,,,,,,,,,,
Central Civil Estate,Cabinet Office,CO - RESIDUAL ESTATE,North West,175526,1,UNIT 8 BERKELEY COURT,WARRINGTON ROAD,WA7 1TQ,53.34979677,-2.667455921,442.8,Concrete,Specialised,1990  -  1999,Specialist,1,,Not BSAHI,,,,,,,,,,,,,,,,,,,,,,,,,,,
Central Civil Estate,Cabinet Office,CO - RESIDUAL ESTATE,South West,192943,1,BROTHERSWOOD COURT,BROTHERSWOOD COURT,BS32 4QW,51.54958836,-2.555409671,495.3,Not Known,"Average, NOT Air Conditioned, Good but Older",1990  -  1999,Office,2,,Not BSAHI,,,,,,,,,,,,,,,,,,,,,,,,,,,
Central Civil Estate,Cabinet Office,CO - RESIDUAL ESTATE,North West,199067,1,UNIT 2 KINGS COURT,MANOR FARM ROAD,WA7 1HR,53.34725885,-2.664787507,559.8,Concrete,"Average, NOT Air Conditioned, Good but Older",1990  -  1999,Office,2,,Not BSAHI,,,,,,,,,,,,,,,,,,,,,,,,,,,
Central Civil Estate,Cabinet Office,CO - RESIDUAL ESTATE,South East,281319,1,GOVERNMENT OFFICES,WENDOVER ROAD,HP22 5SZ,51.79752087,-0.783752159,781.7,Not Known,Specialised,1960  -  1969,Office,,,Not BSAHI,,,,,,,,,,,,,,,,,,,,,,,,,,,
Central Civil Estate,Cabinet Office,CO - RESIDUAL ESTATE,South East,497318,1,PART BUILDING 71,BLETCHLEY PARK,MK3 6EB,51.99546727,-0.741166983,270,,Poorer Quality,1950  -  1959,Specialist,,,,,,,,,,,,,,,,,,,,,,,,,,,,,,
Central Civil Estate,Charity Commission,CHAR - CHARITY COMMISSION,South West,178127,1,WOODFIELD HOUSE,TANGIER,TA1 4BL,51.0161163,-3.111395671,"2,889.00",,Top Quality but NOT Air Conditioned,1990  -  1999,Office,4,,,9688-1011-0323-0500-5205,'683325180000,C,68,,,,,,2217,129,132,,"$691,079.00 ",$239.21 ,$312.00 ,"$5,357.00 ",,17.2,"859,411.00",1158,56,385,2.99,0.071,,
Central Civil Estate,Charity Commission,CHAR - CHARITY COMMISSION,North West,208516,Offices third floor,PRINCES PARADE 12,PRINCES PARADE,L3   1DE,53.40447545,-2.994207227,"2,103.00",Concrete,"Top Quality, Air Conditioned",2000  -  2009,Office,,,Not BSAHI,9917-1061-0909-0900-7005,'979909610000,G,168,,,,,,2101,193,237,,"$849,825.00 ",$404.10 ,$404.00 ,"$4,403.00 ",,10.9,"972,445.00",1834,33,340,1.76,0.016,,
Central Civil Estate,Charity Commission,CHAR - CHARITY COMMISSION,Wales,468772,1,CLARENCE HOUSE,CLARENCE PLACE,NP19 7AA,51.5911763,-2.992598683,309,Concrete,Standard Office Building,Unknown,Office,11,,Not BSAHI,,,,,,,,,,,,,,,,,,,,,,,,,,,
Central Civil Estate,Crown Prosecution Service,CPS - BEDFORDSHIRE,East of England,234908,1,SCEPTRE HOUSE,CASTLE STREET,LU1 3AJ,51.87746571,-0.414588139,936,Concrete,"Top Quality, Air Conditioned",1990  -  1999,Office,4,,,0396-2606-9810-8590-1003,'169536860000,G,9999,,,,,,936,63,31,"$326,809 ","$326,809.00 ",$349.15 ,$349.00 ,"$5,187.00 ","$5,187 ",14.9,,,,,,,,
Central Civil Estate,Crown Prosecution Service,CPS - CAMBRIDGESHIRE,East of England,165938,1,THE ANDERSON CENTRE,THE ERMINE BUSINESS PARK,PE29 6XY,52.34653864,-0.19716675,"1,228.60",,Top Quality but NOT Air Conditioned,1980  -  1989,Office,3,,,9020-4099-0178-8220-7064,'467997280000,E,106,,,,,,1229,73,53,,"$310,258.00 ",$252.53 ,$253.00 ,"$4,250.00 ",,16.8,"310,607.00",952,,103,1.41,,,
Central Civil Estate,Crown Prosecution Service,CPS - CHESHIRE,North West,101200,1,BANKSIDE CHAMBERS,CROSSFIELD STREET,WA1 1UP,53.38947716,-2.602518416,625.99,Concrete,"Average, NOT Air Conditioned, Good but Older",1980  -  1989,Office,2,01-Jan-96,Not BSAHI,0890-0810-4449-7920-9096,'974498940000,E,104,,,,,,866,48,28,,"$245,054.00 ",$391.47 ,$283.00 ,"$5,105.00 ",,18,"204,789.00",385,,70,1.45,,,
Central Civil Estate,Crown Prosecution Service,CPS - CHESHIRE,North West,134668,1,WINDSOR HOUSE,PEPPER STREET,CH1 1TD,53.18839867,-2.890408822,996.01,Concrete,"Good to Average, Air Conditioned",1970  -  1979,Office,2,01-Jan-96,Not BSAHI,1111-1111-1111-1111-1111,'258825680000,D,100,,,,,,978,61,36,,"$260,466.00 ",$261.51 ,$266.00 ,"$4,270.00 ",,16,"91,494.00",,,49,0.81,,,
Central Civil Estate,Crown Prosecution Service,CPS - CLEVELAND,North East,816184,816184,1 Hudson Quay,THE HALYARD,TS3 6RT,54.57780395,-1.220802523,995,Concrete,"Good to Average, Air Conditioned",2000  -  2009,Office,1,,Not BSAHI,9189-1050-0107-0490-8721,'197174580000,G,9999,,,,,,1533,97,67,,"$501,364.00 ",$503.88 ,$327.00 ,"$5,169.00 ",,15.8,,,,,,,,
Central Civil Estate,Crown Prosecution Service,CPS - CUMBRIA,North West,235356,1,PROSPER HOUSE,REGENTS COURT,CA14 4EW,54.64079954,-3.543025915,231.51,Not Known,Top Quality but NOT Air Conditioned,1980  -  1989,Office,2,,Not BSAHI,,,,,,,,,,,,,,,,,,,,,,,,,,,
Central Civil Estate,Crown Prosecution Service,CPS - CUMBRIA,North West,339133,339133,STOCKLUND HOUSE (CPS),CASTLE STREET,CA3 8DW,54.89550215,-2.938184236,404.88,Not Known,Standard Office Building,1926  -  1949,Office,1,,,,,,,,,,,,,,,,,,,,,,,,,,,,,
Central Civil Estate,Crown Prosecution Service,CPS - CUMBRIA,North West,817170,817170,EMLYN HUGHES HOUSE,ABBEY ROAD,LA14 5QY,54.11709321,-3.226262925,330.59,Not Known,"Good to Average, Air Conditioned",Unknown,Office,,,Not BSAHI,,,,,,,,,,,,,,,,,,,,,,,,,,,
Central Civil Estate,Crown Prosecution Service,CPS - DERBYSHIRE,East Midlands,236065,1,ST PETERS HOUSE,GOWER STREET,DE1 1SB,52.91973763,-1.477147092,"1,300.74",Not Known,"Average, NOT Air Conditioned, Good but Older",1970  -  1979,Office,,,Not BSAHI,0288-1004-0212-0500-3521,'282255080000,A,,,,,,,1690,102,63,,"$374,614.00 ",$288.00 ,$222.00 ,"$3,673.00 ",,16.6,"171,233.00",1690,,92,0.9,,,
Central Civil Estate,Crown Prosecution Service,CPS - DEVON & CORNWALL,South West,42127,1,ST ANDREWS COURT,ST ANDREW STREET,PL1 2AH,50.3686337,-4.139488851,586.68,Not Known,Top Quality but NOT Air Conditioned,1960  -  1969,Office,5,,Not BSAHI,,,,,,,,,,615,31,24,,"$145,190.00 ",$247.48 ,$236.00 ,"$4,684.00 ",,19.9,"51,974.00",,,28,0.9,,,
Central Civil Estate,Crown Prosecution Service,CPS - DEVON & CORNWALL,South West,172420,1,HAWKINS HOUSE,PYNES HILL ,EX2 5SS,50.7104232,-3.485275306,"1,286.00",Not Known,Top Quality but NOT Air Conditioned,1990  -  1999,Office,2,,Not BSAHI,0170-0010-6409-8920-6096,'780460960000,D,85,,,,,,1282,70,48,,"$326,713.00 ",$254.05 ,$255.00 ,"$4,667.00 ",,18.3,"218,735.00",284,,81,1.15,,,
Central Civil Estate,Crown Prosecution Service,CPS - DEVON & CORNWALL,South West,694178,DCB,PENHALIGON HOUSE,PRINCES STREET,TR1 1DZ,50.26279851,-5.049056145,450.39,Not Known,Not Known,Unknown,Office,,,Not BSAHI,,,,,,,,,,,,,,,,,,,,,,,,,,,
Central Civil Estate,Crown Prosecution Service,CPS - DORSET,South West,42866,1,OXFORD HOUSE,OXFORD ROAD,BH8 8HA,50.7242172,-1.865701768,"1,148.19",Not Known,"Good to Average, Air Conditioned",1960  -  1969,Office,7,,Not BSAHI,9200-8945-0180-5170-5034,'838455750000,G,9999,,,,,,1160,69,58,,"$344,539.00 ",$300.07 ,$297.00 ,"$4,993.00 ",,16.8,,,14,,,0.06,,
Central Civil Estate,Crown Prosecution Service,CPS - DYFED-POWYS,Wales,176510,176510/1,CAEBANC SITE,PENLAN FFOS ROAD,SA31 2EZ,51.86561304,-4.292905226,702.16,Not Known,"Average, NOT Air Conditioned, Good but Older",Unknown,Office,,,Not BSAHI,,,,,,,,,,629,40,28,,"$74,589.00 ",$106.23 ,$119.00 ,"$1,865.00 ",,15.7,"227,278.00",238,,67,1.68,,,
Central Civil Estate,Crown Prosecution Service,CPS - ESSEX,East of England,230739,1,COUNTY HOUSE,NEW LONDON ROAD,CM2 0RG,51.73064217,0.470374307,"3,445.20",Not Known,"Top Quality, Air Conditioned",1990  -  1999,Office,4,,Not BSAHI,9322-1020-0602-0990-1221,'322629220000,F,144,,,,,,2468,186,133,,"$1,259,690.00 ",$365.64 ,$510.00 ,"$6,773.00 ",,13.3,"824,414.00",943,,443,2.38,,,
Central Civil Estate,Crown Prosecution Service,CPS - GLOUCESTERSHIRE,South West,235576,1,2 KIMBROSE WAY,KIMBROSE WAY,GL1 2DB,51.86300075,-2.249263799,874.4,Concrete,"Average, NOT Air Conditioned, Good but Older",1990  -  1999,Office,3,,Not BSAHI,0840-0010-2749-2620-8096,'424780620000,B,37,,,,,,866,55,39,,"$272,698.00 ",$311.87 ,$315.00 ,"$4,958.00 ",,15.7,"48,857.00",,,26,0.48,,,
Central Civil Estate,Crown Prosecution Service,CPS - GREATER MANCHESTER,North West,33688,1,SUNLIGHT HOUSE,QUAY STREET,M60 3PS,53.478814,-2.250490667,"3,743.65",Concrete,Top Quality but NOT Air Conditioned,1926  -  1949,Office,14,01-Apr-96,Not BSAHI,1111-1111-1111-1111-1111,'856775240000,D,100,,,,,,3665,294,226,,"$1,437,569.00 ",$384.00 ,$392.00 ,"$4,890.00 ",,12.5,"328,004.00",,,176,0.6,,,
Central Civil Estate,Crown Prosecution Service,CPS - GREATER MANCHESTER,North West,154624,1,CROMWELL COURT,CROMWELL STREET,OL1 1ET,53.53899273,-2.114290763,611,Not Known,Top Quality but NOT Air Conditioned,1980  -  1989,Office,2,,Not BSAHI,,,,,,,,,,536,62,46,,"$135,226.00 ",$221.32 ,$252.00 ,"$2,181.00 ",,8.6,"135,147.00",267,21,48,0.77,0.062,,
Central Civil Estate,Crown Prosecution Service,CPS - GREATER MANCHESTER,North West,199328,199328,Kingscroft Court,WARRINGTON ROAD,WN1 3AP,53.54185174,-2.623588969,542.6,Concrete,"Average, NOT Air Conditioned, Good but Older",1980  -  1989,Office,2,01-May-08,,,,,,,,,,,,,,,,,,,,,,,,,,,,
Central Civil Estate,Crown Prosecution Service,CPS - GREATER MANCHESTER,North West,482619,482619,ASHTON POLICE STATION,MANCHESTER ROAD,OL7 0BQ,53.48416083,-2.10754255,227,Concrete,"Top Quality, Air Conditioned",2000  -  2009,Office,1,,,,,,,,,,,,,,,,,,,,,,,,,,,,,
Central Civil Estate,Crown Prosecution Service,CPS - GREATER MANCHESTER,North West,816127,816127,Bolton Police Station Scholey Street,SCHOLEY STREET,BL2 1HX,53.57024249,-2.418129621,568.38,Concrete,"Good to Average, Air Conditioned",2000  -  2009,Office,1,,,,,,,,,,,,568,40,39,,"$234,772.00 ",$413.05 ,$413.00 ,"$5,869.00 ",,14.2,,,,,,,,
Central Civil Estate,Crown Prosecution Service,CPS - GREATER MANCHESTER,North West,816128,1,WIGAN POLICE STATION,ROBIN PARK ROAD,WN5 0UP,53.5425638,-2.651863963,325,Not Known,Not Known,Unknown,Other,,,Not BSAHI,,,,,,,,,,,,,,,,,,,,,,,,,,,
Central Civil Estate,Crown Prosecution Service,CPS - GWENT,Wales,815809,815809,Vantage Point House,TY COCH WAY,NP44 7HF,51.63830411,-3.022644053,"1,291.60",Concrete,"Good to Average, Air Conditioned",1980  -  1989,Office,1,30-Nov-07,Not BSAHI,,'314693530000, ,,,,,,,1248,74,68,,"$304,313.00 ",$235.61 ,$244.00 ,"$4,112.00 ",,16.9,,,,,,,,
Central Civil Estate,Crown Prosecution Service,CPS - HAMPSHIRE & ISLE OF WIGHT,South East,58247,058247/1,BLACK HORSE HOUSE,LEIGH ROAD,SO50 9FH,50.96941054,-1.351435168,976.6,Not Known,"Average, NOT Air Conditioned, Good but Older",Unknown,Office,,,Not BSAHI,0870-0310-5739-8620-1096,'783713650000,G,9999,,,,,,1003,62,39,,"$286,949.00 ",$293.82 ,$286.00 ,"$4,628.00 ",,16.2,"93,043.00",,,50,0.81,,,
Central Civil Estate,Crown Prosecution Service,CPS - HAMPSHIRE & ISLE OF WIGHT,South East,165622,1,CROWN HOUSE,WINSTON CHURCHILL AVENUE,PO1 2PT,50.79595259,-1.090038043,964,Not Known,"Average, NOT Air Conditioned, Good but Older",1960  -  1969,Office,,,Not BSAHI,9200-2963-0110-8800-3084,'281633080000,G,158,,,,,,970,43,53,,"$78,847.00 ",$81.79 ,$81.00 ,"$1,834.00 ",,22.6,"196,974.00",373,,106,2.46,,,
Central Civil Estate,Crown Prosecution Service,CPS - HEADQUARTERS,Yorkshire and the Humber,194457,1,UNITED HOUSE,PICCADILLY,YO1 9PQ,53.95602354,-1.07653673,"3,501.50",Not Known,Top Quality but NOT Air Conditioned,1980  -  1989,Office,7,,Not BSAHI,,'320164960000, ,,,,,,,3502,207,128,,"$930,912.00 ",$265.86 ,$266.00 ,"$4,497.00 ",,16.9,"114,789.00",4710,,62,0.3,,,
Central Civil Estate,Crown Prosecution Service,CPS - HERTFORDSHIRE,East of England,32670,1,QUEENS HOUSE,VICTORIA STREET,AL1 3HZ,51.75122837,-0.335130686,"1,235.60",Not Known,Top Quality but NOT Air Conditioned,1980  -  1989,Office,,,,0709-0803-1310-6890-3803,'391878330000,E,125,,,,,,1236,94,78,,"$398,789.00 ",$322.75 ,$323.00 ,"$4,242.00 ",,13.1,"520,377.00",862,,167,1.78,,,
Central Civil Estate,Crown Prosecution Service,CPS - HUMBERSIDE,Yorkshire and the Humber,702174,1,CITADEL HOUSE,HIGH STREET,HU1 1QD,53.742029,-0.331418598,"1,462.69",Concrete,"Average, NOT Air Conditioned, Good but Older",2000  -  2009,Office,2,,Not BSAHI,1111-1111-1111-1111-1111,'158082770000,D,100,,,,,,1463,75,50,,"$372,205.00 ",$254.47 ,$254.00 ,"$4,963.00 ",,19.5,"203,277.00",558,,84,1.12,,,
Central Civil Estate,Crown Prosecution Service,CPS - KENT,South East,199012,1,PRIORY GATE,UNION STREET,ME14 1PT,51.27625609,0.523804337,"1,547.00",,"Average, NOT Air Conditioned, Good but Older",1980  -  1989,Office,,,,9200-6968-0170-4870-8020,'627688740000,D,91,,,,,,1547,101,87,,"$606,152.00 ",$391.82 ,$392.00 ,"$6,002.00 ",,15.3,"368,191.00",619,,114,1.13,,,
Central Civil Estate,Crown Prosecution Service,CPS - KENT,South East,264837,1,RIDING GATE HOUSE,OLD DOVER ROAD,CT1 3JG,51.27465548,1.083451307,"1,271.00",Not Known,Top Quality but NOT Air Conditioned,1960  -  1969,Office,,,Not BSAHI,9200-5927-0140-1180-6054,'554276810000,D,80,,,,,,1272,59,42,,"$244,429.00 ",$192.31 ,$192.00 ,"$4,143.00 ",,21.6,"211,885.00",,,77,1.3,,,
Central Civil Estate,Crown Prosecution Service,CPS - LANCASHIRE,North West,100820,100820,Burnley Wharf,MANCHESTER ROAD,BB11 1JG,53.78695605,-2.246845192,"1,136.08",Other,"Average, NOT Air Conditioned, Good but Older",1980  -  1989,Office,5,01-Apr-98,Not BSAHI,0890-0110-2399-7820-8096,'979381820000,E,125,,,,,,1117,86,77,,"$249,130.00 ",$219.29 ,$223.00 ,"$2,897.00 ",,13,"385,577.00",,,133,1.55,,,
Central Civil Estate,Crown Prosecution Service,CPS - LANCASHIRE,North West,189170,CPS1,UNICENTRE (CPS),LORDS WALK,PR1 1DH,53.76052292,-2.694932165,"1,538.22",Concrete,"Average, NOT Air Conditioned, Good but Older",1970  -  1979,Office,3,,Not BSAHI,1111-1111-1111-1111-1111,'425438750000,D,100,,,,,,1534,101,117,,"$435,034.00 ",$282.82 ,$284.00 ,"$4,307.00 ",,15.2,"89,491.00",,,48,0.48,,,
Central Civil Estate,Crown Prosecution Service,CPS - LANCASHIRE,North West,556762,556762,ROSEMARY HOUSE,NORTH ROAD,LA1 1LU,54.04998091,-2.799142285,551.49,Concrete,Top Quality but NOT Air Conditioned,Unknown,Office,4,,,,,,,,,,,,,,,,,,,,,,,,,,,,,
Central Civil Estate,Crown Prosecution Service,CPS - LEICESTERSHIRE,East Midlands,189871,1,PRINCES COURT,YORK ROAD,LE1 5TU,52.63079667,-1.135187302,"2,117.00",Not Known,"Top Quality, Air Conditioned",1990  -  1999,Office,4,,Not BSAHI,0190-0210-1839-1420-1092,'913812410000,F,128,,,,,,2127,109,78,,"$541,311.00 ",$255.70 ,$254.00 ,"$4,966.00 ",,19.5,"375,769.00",1077,,202,1.85,,,
Central Civil Estate,Crown Prosecution Service,CPS - LINCOLNSHIRE,East Midlands,817976,817976,THE REGATTA,HENLEY WAY,LN6 3QR,53.20427361,-0.601750981,907.07,Not Known,Standard Office Building,Unknown,Office,,,Not BSAHI,9283-1050-0904-0990-8221,'234929580000,G,9999,,,,,,907,64,54,,"$199,805.00 ",$220.28 ,$220.00 ,"$3,122.00 ",,14.2,,,,,,,,
Central Civil Estate,Crown Prosecution Service,CPS - LONDON,London,87247,1, Artillery Row 4-16,ARTILLERY ROW,SW1P 1RZ,51.49673789,-0.13584011,"1,472.60",Not Known,"Top Quality, Air Conditioned",1980  -  1989,Office,,,,,,,,,,,,,,,,,,,,,,,,,,,,,,
Central Civil Estate,Crown Prosecution Service,CPS - LONDON,London,101671,1,OFFICE BUILDING,SOUTHWARK BRIDGE,SE1 9HS,51.50743718,-0.095429415,"14,608.30",Not Known,Standard Office Building,Unknown,Office,,,Not BSAHI,0999-2300-9510-8890-1003,'199893500000,G,195,,,,,,8386,810,622,,"$7,804,508.00 ",$534.25 ,$931.00 ,"$9,635.00 ",,10.4,"6,558,958.00",3400,,2616,3.23,,,
Central Civil Estate,Crown Prosecution Service,CPS - LONDON,London,152213,1,THE COOPERAGE,GAINSFORD STREET,SE1 2NE,51.50302563,-0.075282384,"2,786.00",,"Top Quality, Air Conditioned",1980  -  1989,Office,,,,9200-8938-0170-0190-6070,'877386900000,G,207,,,,,,2786,197,174,,"$1,607,265.00 ",$576.91 ,$577.00 ,"$8,159.00 ",,14.1,"1,113,855.00",621,,503,2.55,,,
Central Civil Estate,Crown Prosecution Service,CPS - MERSEYSIDE,North West,154026,1,ROYAL LIVER BUILDING,ST NICHOLAS PLACE,L3 1HT,53.40582784,-2.995878396,"2,609.60",Not Known,"Average, NOT Air Conditioned, Good but Older",1900  -  1925,Office,,,,1111-1111-1111-1111-1111,'829720840000,D,100,,,,,,2610,233,165,,"$835,617.00 ",$320.21 ,$320.00 ,"$3,586.00 ",,11.2,"171,235.00",,,92,0.39,,,
Central Civil Estate,Crown Prosecution Service,CPS - MERSEYSIDE,North West,441829,1,HERON HOUSE,HOUGOUMONT AVENUE,L22 0LL,53.47508465,-3.022782079,"1,466.80",,"Average, NOT Air Conditioned, Good but Older",1960  -  1969,Office,,,,1111-1111-1111-1111-1111,'511281980000,D,100,,,,,,175,38,17,,"$215,624.00 ",$147.00 ,"$1,234.00 ","$5,674.00 ",,4.6,"222,611.00",323,,79,2.07,,,
Central Civil Estate,Crown Prosecution Service,CPS - NORFOLK,East of England,301863,1,CARMELITE HOUSE,ST. JAMES COURT,NR3 1SL,52.63527574,1.30098796,"1,451.33",Not Known,"Good to Average, Air Conditioned",2000  -  2009,Office,4,,Not BSAHI,0170-0510-6929-7820-3096,'772935860000,G,9999,,,,,,1455,91,60,,"$487,325.00 ",$335.78 ,$335.00 ,"$5,355.00 ",,16,"106,385.00",,,57,0.63,,,
Central Civil Estate,Crown Prosecution Service,CPS - NORTH WALES,Wales,177102,177102,Llys Eirias Colwyn Bay,HERITAGE GATE ,LL29 8BW,53.28830596,-3.716555602,825.92,Concrete,"Average, NOT Air Conditioned, Good but Older",Unknown,Office,3,01-Aug-08,Not BSAHI,,,,,,,,,,826,30,25,,"$227,756.00 ",$275.76 ,$276.00 ,"$7,592.00 ",,27.5,,,,,,,,
Central Civil Estate,Crown Prosecution Service,CPS - NORTH WALES,Wales,196411,1,BROMFIELD HOUSE,ELLICE WAY,LL13 7YW,53.04910361,-3.010412874,709,Not Known,Top Quality but NOT Air Conditioned,1990  -  1999,Office,2,,Not BSAHI,,,,,,,,,,660,55,22,,"$165,334.00 ",$233.19 ,$251.00 ,"$3,006.00 ",,12,"216,497.00",458,,68,1.23,,,
Central Civil Estate,Crown Prosecution Service,CPS - NORTH YORKSHIRE,Yorkshire and the Humber,216612,216612,ATHENA HOUSE,KETTLESTRING LANE,YO30 4XF,53.9870787,-1.100434713,"1,102.69",Not Known,Top Quality but NOT Air Conditioned,2000  -  2009,Office,1,,Not BSAHI,0860-0310-4749-6620-7092,'664773640000,G,9999,,,,,,2206,54,48,,"$210,313.00 ",$190.73 ,$95.00 ,"$3,895.00 ",,40.8,,,,,,,,
Central Civil Estate,Crown Prosecution Service,CPS - NORTHUMBRIA,North East,444505,1,ST ANN'S QUAY,QUAYSIDE,NE1 3BD,54.97137095,-1.596178562,"2,695.40",Not Known,"Good to Average, Air Conditioned",2000  -  2009,Office,,,Not BSAHI,9200-1939-0180-9120-6074,'178396290000,G,227,,,,,,2698,207,154,,"$1,051,020.00 ",$389.93 ,$390.00 ,"$5,077.00 ",,13,"1,130,569.00",1269,,404,1.95,,,
Central Civil Estate,Crown Prosecution Service,CPS - NOTTINGHAMSHIRE,East Midlands,56623,1,KING EDWARD COURT,KING EDWARD STREET,NG1 1EL,52.95593444,-1.144629431,"1,622.03",Not Known,"Top Quality, Air Conditioned",1980  -  1989,Office,,,Not BSAHI,9200-8938-0130-1890-4050,'853384910000,E,109,,,,,,2973,174,145,,"$692,478.00 ",$426.92 ,$233.00 ,"$3,980.00 ",,17.1,"786,915.00",1396,,256,1.47,,,
Central Civil Estate,Crown Prosecution Service,CPS - SOUTH WALES,Wales,176675,1,CAMBRIAN HOUSE,PENTREBACH,CF48 4XA,51.72144597,-3.356740849,"1,266.92",Not Known,Standard Office Building,1980  -  1989,Office,7,,Not BSAHI,0150-0710-2039-2320-7092,'523077320000,E,113,,,,,,1262,52,37,,"$244,598.00 ",$193.07 ,$194.00 ,"$4,704.00 ",,24.3,"269,599.00",385,,104,2,,,
Central Civil Estate,Crown Prosecution Service,CPS - SOUTH WALES,Wales,388261, CPS1,CAPITAL TOWER (CPS),GREYFRIARS ROAD,CF10 3PL,51.48295749,-3.1775796,"1,833.90",Concrete,Top Quality but NOT Air Conditioned,1960  -  1969,Office,4,,Not BSAHI,9200-6971-0180-7100-0094,'698710070000,G,9999,,,,,,1865,172,65,,"$654,243.00 ",$356.75 ,$351.00 ,"$3,804.00 ",,10.8,,,,,,,,
Central Civil Estate,Crown Prosecution Service,CPS - SOUTH YORKSHIRE,Yorkshire and the Humber,235040,1,GREENFIELD HOUSE,SCOTLAND STREET,S3 7BS,53.38573652,-1.472660858,"1,845.20",Other,Standard Office Building,1990  -  1999,Office,4,01-Jan-96,Not BSAHI,9549-1060-0908-0790-1525,'598957640000,E,115,,,,,,1841,174,122,,"$263,312.00 ",$142.70 ,$143.00 ,"$1,513.00 ",,10.6,"1,076,803.00",2024,,372,2.14,,,
Central Civil Estate,Crown Prosecution Service,CPS - SOUTH YORKSHIRE,Yorkshire and the Humber,235040,2,WAREHOUSE,SCOTLAND STREET,S3 7BS,53.38573652,-1.472660858,246.8,Concrete,Storage  -  Permanent,1990  -  1999,Storage,1,01-Jan-96,,,,,,,,,,,,,,,,,,,,,,,,,,,,
Central Civil Estate,Crown Prosecution Service,CPS - SOUTH YORKSHIRE,Yorkshire and the Humber,235040,3,ANCILLARY OFFICE,SCOTLAND STREET,S3 7BS,53.38573652,-1.472660858,"1,944.00",Other,"Portakabins, etc.",1990  -  1999,Storage,2,01-Jan-96,Not BSAHI,9549-1060-0908-0790-1525,'598957640000,E,115,,,,,,,,,,,,,,,,,,,,,,,
Central Civil Estate,Crown Prosecution Service,CPS - STAFFORDSHIRE,West Midlands,524338,524338,Building 3,ETRURIA VALLEY OFFICE VILLAGE,ST1 5RU,53.02847804,-2.160333137,"1,488.37",Concrete,"Good to Average, Air Conditioned",2000  -  2009,Office,3,,Not BSAHI,0160-0310-9009-4220-5092,'640053290000,E,101,,,,,,1403,74,47,,"$370,157.00 ",$248.70 ,$264.00 ,"$5,002.00 ",,19,"242,502.00",703,,130,1.76,,,
Central Civil Estate,Crown Prosecution Service,CPS - STAFFORDSHIRE,West Midlands,815812,815812,2 Parker Court,PARKER COURT,ST18 0ZE,52.81759391,-2.087026878,953.5,Not Known,"Good to Average, Air Conditioned",2000  -  2009,Office,,,Not BSAHI,0810-0910-5809-9320-8092,'190889350000,C,70,,,,,,947,58,38,,"$217,374.00 ",$227.97 ,$230.00 ,"$3,748.00 ",,16.3,"130,821.00",307,,70,1.21,,,
Central Civil Estate,Crown Prosecution Service,CPS - SUFFOLK,East of England,639593,639593,St Vincent House Floors 5-7,ST. PETERS STREET,IP1 1UR,52.05403848,1.152779351,"1,499.43",Not Known,Standard Office Building,Unknown,Office,,,Not BSAHI,0810-0818-9430-2502-2096,'123428590000,E,102,,,,,,1499,63,46,,"$458,579.00 ",$305.84 ,$306.00 ,"$7,279.00 ",,23.8,,,,,,,,
Central Civil Estate,Crown Prosecution Service,CPS - SURREY,South East,816876,816876,Gateway Guildford,POWER CLOSE,GU1 1EJ,51.24523514,-0.577534307,"1,326.00",Concrete,"Good to Average, Air Conditioned",2000  -  2009,Office,1,,Not BSAHI,9200-1910-0120-0840-3090,'192103400000,G,9999,,,,,,788,77,63,,"$692,386.00 ",$522.16 ,$879.00 ,"$8,992.00 ",,10.2,,,,,,,,
Central Civil Estate,Crown Prosecution Service,CPS - SUSSEX,South East,577363,577363,185 Dyke Road LGND-2ND FLR FRONT,DYKE ROAD,BN3 1TL,50.8330833,-0.150050938,"1,105.88",Not Known,Not Known,Unknown,Office,,,Not BSAHI,9200-4958-0190-8180-6070,'479586880000,D,78,,,,,,990,104,83,,"$379,554.00 ",$343.21 ,$383.00 ,"$3,650.00 ",,9.5,"121,230.00",,,65,0.63,,,
Central Civil Estate,Crown Prosecution Service,CPS - THAMES VALLEY,South East,711537,711537,GEMINI ONE,OXFORD BUSINESS PARK,OX4 2LL,51.72911267,-1.207807807,"1,089.57",Concrete,"Good to Average, Air Conditioned",2000  -  2009,Office,,,Not BSAHI,9762-1040-0801-0590-1221,'721825460000,G,9999,,,,,,1088,71,48,,"$543,181.00 ",$498.53 ,$499.00 ,"$7,650.00 ",,15.3,,,,,,,,
Central Civil Estate,Crown Prosecution Service,CPS - WEST MERCIA,West Midlands,108647,1,Lakeside House,HOLSWORTH PARK,SY3 5HJ,52.71501895,-2.798251094,613.6,Concrete,Top Quality but NOT Air Conditioned,1990  -  1999,Office,2,,Not BSAHI,,,,,,,,,,613,53,33,,"$154,044.00 ",$251.05 ,$251.00 ,"$2,906.00 ",,11.6,"170,577.00",400,"15,510",61,1.15,56.699,,
Central Civil Estate,Crown Prosecution Service,CPS - WEST MERCIA,West Midlands,197405,1,ARTILLERY HOUSE,HERITAGE WAY,WR9 8YB,52.26578326,-2.152551897,"1,665.00",Concrete,"Top Quality, Air Conditioned",1990  -  1999,Office,,,,0548-1009-0581-0790-9501,'581557040000,D,91,,,,,,1665,85,64,,"$367,191.00 ",$220.54 ,$221.00 ,"$4,320.00 ",,19.6,"273,014.00",728,,95,1.12,,,
Central Civil Estate,Crown Prosecution Service,CPS - WEST MIDLANDS,West Midlands,177171,177171,Friars House,WARWICK ROAD,CV1 2TE,52.40362738,-1.513413979,"4,457.40",Concrete,"Good to Average, Air Conditioned",1980  -  1989,Office,7,,Not BSAHI,0830-0318-3330-8092-2096,'383323030000,E,114,,,,,,1911,86,66,,"$1,410,522.00 ",$316.45 ,$738.00 ,"$16,401.00 ",,22.2,,,,,,,,
Central Civil Estate,Crown Prosecution Service,CPS - WEST MIDLANDS,West Midlands,227801,1,COLMORE GATE,COLMORE ROW,B3 2QA,52.48199583,-1.896823946,"4,505.59",Not Known,Top Quality but NOT Air Conditioned,1990  -  1999,Office,,,Not BSAHI,9550-1060-0504-0590-1225,'504525650000,C,57,,,,,,4511,270,183,,"$2,380,773.00 ",$528.40 ,$528.00 ,"$8,818.00 ",,16.7,"437,673.00",,,235,0.87,,,
Central Civil Estate,Crown Prosecution Service,CPS - WEST YORKSHIRE,Yorkshire and the Humber,171429,171429,JEFFERSON HOUSE,PARK PLACE,LS1 2SZ,53.79770526,-1.553483805,"2,698.00",Not Known,"Good to Average, Air Conditioned",Unknown,Office,,,Not BSAHI,9377-1060-0706-0490-8221,'376724670000,F,141,,,,,,2281,206,157,,"$1,040,985.00 ",$385.84 ,$456.00 ,"$5,053.00 ",,11.1,"1,043,818.00",902,,561,2.72,,,
Central Civil Estate,Crown Prosecution Service,CPS - WEST YORKSHIRE,Yorkshire and the Humber,194622,1,WINDSOR HOUSE,MANCHESTER ROAD,BD5 0QH,53.78856512,-1.757139128,"1,251.00",Not Known,Top Quality but NOT Air Conditioned,1990  -  1999,Office,,,Not BSAHI,0190-0610-3109-1220-4096,'910146230000,G,154,,,,,,1251,97,81,,"$368,952.00 ",$294.93 ,$295.00 ,"$3,804.00 ",,12.9,"358,777.00",1558,,131,1.35,,,
Central Civil Estate,Crown Prosecution Service,CPS - WEST YORKSHIRE,Yorkshire and the Humber,199548,1,Units 4 and 5 South Parade,SOUTH PARADE,WF1 1LR,53.68015641,-1.498408254,"1,930.48",Not Known,Top Quality but NOT Air Conditioned,1980  -  1989,Office,2,,Not BSAHI,0890-0410-7519-2820-4096,'921544870000,D,77,,,,,,710,46,49,,"$403,110.00 ",$208.81 ,$568.00 ,"$8,763.00 ",,15.4,"395,020.00",1686,,114,2.47,,,
Central Civil Estate,Crown Prosecution Service,CPS - WILTSHIRE,South West,235325,1,FOX TALBOT HOUSE,BELLINGER CLOSE,SN15 1BN,51.47285668,-2.122762886,"1,108.50",Not Known,Top Quality but NOT Air Conditioned,1980  -  1989,Office,,,,9200-1956-0170-1160-2060,'167562610000,G,9999,,,,,,1108,53,37,,"$403,764.00 ",$364.24 ,$364.00 ,"$7,618.00 ",,20.9,"74,229.00",,,40,0.75,,,
Central Civil Estate,"Department for Business, Innovation and Skills",BIS - ADVISORY CONCILIATION AND ARBITRATION SERVICE,North East,101690,INNEW,"Ground, First & Second Floors",WESTGATE ROAD,NE1 4XX,54.97023649,-1.617762241,879,Not Known,Standard Office Building,Unknown,Office,,,Not BSAHI,,,,,,,,,,879,61,66,,"$337,684.00 ",$384.17 ,$384.00 ,"$5,536.00 ",,14.4,"154,098.00",,,83,1.36,,,
Central Civil Estate,"Department for Business, Innovation and Skills",BIS - ADVISORY CONCILIATION AND ARBITRATION SERVICE,South East,201084,INFLE,Ground Floor,WATERFRONT BUSINESS PARK,GU51 3QT,51.28823396,-0.831712651,434.97,Concrete,"Good to Average, Air Conditioned",2000  -  2009,Office,1,,Not BSAHI,,,,,,,,,,,,,,,,,,,,,,,,,,,
Central Civil Estate,"Department for Business, Innovation and Skills",BIS - ADVISORY CONCILIATION AND ARBITRATION SERVICE,South West,378971,INBRI,"Ground, First & Second Floors",WELSH BACK,BS1 4SB,51.45074255,-2.592459661,"1,092.00",Concrete,Standard Office Building,Unknown,Office,3,,Not BSAHI,0760-0610-3579-6592-1096,'667516530000,B,50,,,,,,1092,50,55,,"$450,057.00 ",$412.14 ,$412.00 ,"$8,947.00 ",,21.7,"217,430.00",1049,,57,1.14,,,
Central Civil Estate,"Department for Business, Innovation and Skills",BIS - ADVISORY CONCILIATION AND ARBITRATION SERVICE,Scotland,413682,INGLA,First & Second Floors,WEST GEORGE STREET,G2 2JJ,55.86221545,-4.257322553,"1,319.50",Not Known,Not Known,Unknown,Office,,,Not BSAHI,,,,,,,,,,1320,68,83,,"$680,596.00 ",$515.80 ,$516.00 ,"$10,038.00 ",,19.5,,,,,,,,
Central Civil Estate,"Department for Business, Innovation and Skills",BIS - ADVISORY CONCILIATION AND ARBITRATION SERVICE,East of England,572431,INBUR,Ground & First Floors,"KEMPSON WAY, SUFFOLK BUSINESS PARK",IP32 7AR,52.24200297,0.751263327,634.34,Concrete,"Good to Average, Air Conditioned",2000  -  2009,Office,1,,Not BSAHI,,,,,,,,,,634,30,34,,"$198,836.00 ",$313.45 ,$313.00 ,"$6,628.00 ",,21.1,"74,076.00",1413,,40,1.33,,,
Central Civil Estate,"Department for Business, Innovation and Skills",BIS - ADVISORY CONCILIATION AND ARBITRATION SERVICE,East Midlands,574064,INAND,"Basement, Ground & First Floors",CLINTON AVENUE,NG5 1AW,52.97194985,-1.15540728,329.98,Not Known,Not Known,Unknown,Office,,,Not BSAHI,,,,,,,,,,,,,,,,,,,,,,,,,,,
Central Civil Estate,"Department for Business, Innovation and Skills",BIS - ADVISORY CONCILIATION AND ARBITRATION SERVICE,London,621605,INLON,22nd & 23rd Floors,EUSTON ROAD,NW1 3JJ,51.52523621,-0.139303901,"1,844.00",Not Known,Standard Office Building,Unknown,Office,2,,Not BSAHI,9920-3996-0120-4480-0040,'342960840000,E,110,,,,,,1844,177,168,,"$1,522,791.00 ",$825.81 ,$826.00 ,"$8,598.00 ",,10.4,"223,824.00",,,120,0.68,,,
Central Civil Estate,"Department for Business, Innovation and Skills",BIS - ADVISORY CONCILIATION AND ARBITRATION SERVICE,Yorkshire and the Humber,638453,INLEE,Part First Floor,ALBION STREET,LS2 8ER,53.80064986,-1.54537525,976,Not Known,Standard Office Building,Unknown,Office,,,Not BSAHI,,,,,,,,,,976,57,62,,"$443,790.00 ",$454.70 ,$455.00 ,"$7,786.00 ",,17.1,"91,150.00",,,49,0.86,,,
Central Civil Estate,"Department for Business, Innovation and Skills",BIS - ADVISORY CONCILIATION AND ARBITRATION SERVICE,Wales,816927,INCAR,Part Third Floor,TRESILLIAN TERRACE,CF10 5BF,51.47250425,-3.17535221,558,Not Known,Standard Office Building,Unknown,Office,,,Not BSAHI,,,,,9901-1045-9338-8473-6220,816927,13-Jan-09,C,62,558,34,40,,"$236,754.00 ",$424.29 ,$424.00 ,"$6,963.00 ",,16.4,"114,432.00",,,61,1.81,,,
Central Civil Estate,"Department for Business, Innovation and Skills",BIS - ADVISORY CONCILIATION AND ARBITRATION SERVICE,Wales,838290,INWRE,Office F5,WREXHAM TECHNOLOGY PARK,LL13 7YP,53.04837944,-3.014170112,30,Not Known,"Good to Average, Air Conditioned",Unknown,Office,,,Grade 1,,,,,,,,,,,,,,,,,,,,,,,,,,,
Central Civil Estate,"Department for Business, Innovation and Skills",BIS - ARTS & HUMANITIES RESEARCH COUNCIL,South West,721839,01 AHRC,POLARIS HOUSE AHRC,NORTH STAR AVENUE,SN2  1EU,51.56666731,-1.785029443,850.3,Not Known,Not Known,Unknown,Office,,,Not BSAHI,9727-1000-0804-0890-2995,'774898020000,F,129,,,,,,,,,,,,,,,,,,,,,,,
Central Civil Estate,"Department for Business, Innovation and Skills",BIS - BIOTECHNOLOGY & BIOLOGICAL  SCIENCES RESEARCH COUNCIL,East of England,286502,SURPLUS SITE,FORMER RESEARCH BUILDINGS,,PE28 2BZ,52.33326726,-0.099633033,"18,055.00",Not Known,Specialised,Unknown,Specialist,,,Not BSAHI,,,,,,,,,,,,,,,,,,,,,,,,,,,
Central Civil Estate,"Department for Business, Innovation and Skills",BIS - BIOTECHNOLOGY & BIOLOGICAL  SCIENCES RESEARCH COUNCIL,East of England,351627,BAB001,BABRAHAM LABORATORY,A1307,CB22 3AT,52.13250163,0.205667734,"61,795.00",Not Known,Specialised,Unknown,Specialist,,,Not BSAHI,,,,,,,,,,,,,,,,,,,,,,,,,,,
Central Civil Estate,"Department for Business, Innovation and Skills",BIS - BIOTECHNOLOGY & BIOLOGICAL  SCIENCES RESEARCH COUNCIL,South East,375697,IAH001,IAH COMPTON,HIGH STREET,RG20 7NN,51.51734637,-1.254591925,"77,228.00",Not Known,Specialised,Unknown,Specialist,,,,,,,,,,,,,,,,,,,,,,,,,,,,,,
Central Civil Estate,"Department for Business, Innovation and Skills",BIS - BIOTECHNOLOGY & BIOLOGICAL  SCIENCES RESEARCH COUNCIL,South East,511360,PIRBRIGHT LABORATORY,RESEARCH CENTRE,ASH ROAD,GU24 0NF,51.28030114,-0.635338707,"20,944.00",Not Known,Specialised,Unknown,Specialist,,,,,,,,,,,,,,,,,,,,,,,,,,,,,,
Central Civil Estate,"Department for Business, Innovation and Skills",BIS - BIOTECHNOLOGY & BIOLOGICAL  SCIENCES RESEARCH COUNCIL,Wales,573817,RESEARCH SITE,RESEARCH CENTRE,JUNCTION OF B4340 & B4575,SY23 3EB,52.43356116,-4.01733478,"22,025.00",Not Known,Specialised,Unknown,Specialist,,,,,,,,,,,,,,,,,,,,,,,,,,,,,,
Central Civil Estate,"Department for Business, Innovation and Skills",BIS - BIOTECHNOLOGY & BIOLOGICAL  SCIENCES RESEARCH COUNCIL,Scotland,614583,FARM & RESEARCH BUILDINGS,SKEDSBUSH FARM,,EH41 4JP,55.8824032,-2.782014665,"2,498.00",Not Known,Specialised,Unknown,Specialist,,,,,,,,,,,,,,,,,,,,,,,,,,,,,,
Central Civil Estate,"Department for Business, Innovation and Skills",BIS - BIOTECHNOLOGY & BIOLOGICAL  SCIENCES RESEARCH COUNCIL,Scotland,678256,RESEARCH SITE,RESEARCH CENTRE,,EH25 9PS,55.86252718,-3.152471725,"12,933.00",Not Known,Specialised,Unknown,Specialist,,,,,,,,,,,,,,,,,,,,,,,,,,,,,,
Central Civil Estate,"Department for Business, Innovation and Skills",BIS - BIOTECHNOLOGY & BIOLOGICAL  SCIENCES RESEARCH COUNCIL,South West,721839,01 BBSR,POLARIS HOUSE BBSRC,NORTH STAR AVENUE,SN2  1EU,51.56666731,-1.785029443,"2,768.80",Not Known,Not Known,Unknown,Office,,,Not BSAHI,,,,,,,,,,2379,196,256,,"$327,623.00 ",$118.33 ,$138.00 ,"$1,672.00 ",,12.1,"872,484.00",2708,,382,1.95,,,
Central Civil Estate,"Department for Business, Innovation and Skills",BIS - BIOTECHNOLOGY & BIOLOGICAL  SCIENCES RESEARCH COUNCIL,South West,759611,RESEARCH SITE,RESEARCH CENTRE,OFF A3124,EX20 2SB,50.76950144,-3.901284802,"10,889.00",Not Known,Specialised,Unknown,Specialist,,,,,,,,,,,,,,,,,,,,,,,,,,,,,,
Central Civil Estate,"Department for Business, Innovation and Skills",BIS - BIOTECHNOLOGY & BIOLOGICAL  SCIENCES RESEARCH COUNCIL,East of England,856852,Norwich Research Campus,Norwich Research Park,COLNEY LANE,NR4 7UT,52.62381194,1.224531976,"20,153.00",Not Known,Specialised,Unknown,Laboratory,,,Not BSAHI,,,,,,,,,,,,,,,,,,,,,,,,,,,
Central Civil Estate,"Department for Business, Innovation and Skills",BIS - COMPANIES HOUSE,Wales,100326,1,COMPANIES HOUSE,CROWN WAY,CF14 3UZ,51.5002815,-3.187722031,"19,430.01",Concrete,"Average, NOT Air Conditioned, Good but Older",1970  -  1979,Office,5,,Not BSAHI,0820-0419-6369-7002-1002,'276314060000,D,76,,,,,,12112,771,1168,,"$1,811,276.00 ",$93.22 ,$150.00 ,"$2,349.00 ",,15.7,"2,517,030.00",3472,157,1077,1.4,0.05,,
Central Civil Estate,"Department for Business, Innovation and Skills",BIS - COMPANIES HOUSE,Wales,100326,Annex / Crown Way,REPOSITORY / BASEMENT,CROWN WAY,CF14 3UZ,51.5002815,-3.187722031,"8,045.41",Other,Storage  -  Permanent,1970  -  1979,Storage,2,,,0820-0419-6369-7002-1002,'276314060000,D,76,,,,,,,,,,,,,,,,,,,,,,,
Central Civil Estate,"Department for Business, Innovation and Skills",BIS - COMPANIES HOUSE,Wales,100326,MAIN ENTRANCE AREA,NON SECURE BLOCK,CROWN WAY,CF14 3UZ,51.5002815,-3.187722031,"1,307.55",Concrete,"Average, NOT Air Conditioned, Good but Older",1970  -  1979,Mixed Use,1,,,0820-0419-6369-7002-1002,'276314060000,D,76,,,,,,,,,,,,,,,,,,,,,,,
Central Civil Estate,"Department for Business, Innovation and Skills",BIS - COMPANIES HOUSE,Scotland,816941,EDIN/1,Edinburgh Quay 2,FOUNTAINBRIDGE,EH3 9FF,55.94511357,-3.197611944,725,Concrete,"Top Quality, Air Conditioned",2000  -  2009,Office,,,,,,,,,816941,20-Nov-09,A,23,725,33,43,,"$139,811.00 ",$192.84 ,$193.00 ,"$4,237.00 ",,22,"56,188.00",,,30,0.91,,,
Central Civil Estate,"Department for Business, Innovation and Skills",BIS - COMPANIES HOUSE,Northern Ireland,821418,CH/BELF/01,The Linenhal,LINENHALL,BT2 8BG,53.25763405,-2.992686545,560,Concrete,"Top Quality, Air Conditioned",2000  -  2009,Office,7,,Not BSAHI,,,,,9920-9026-0311-5532-9040,9.42E+11,23-Dec-09,C,73,,,,,,,,,,,,,,,,,,
Central Civil Estate,"Department for Business, Innovation and Skills",BIS - COMPETITION COMMISSION,London,445918,Victoria House,VICTORIA HOUSE (CC),SOUTHAMPTON ROW,WC1B 4AD,51.5192261,-0.122180065,"1,642.00",Concrete,"Top Quality, Air Conditioned",Unknown,Office,1,01-Jan-02,Not BSAHI,,,,,,,,,,1642,130,130,"$1,809,499 ","$1,576,944.00 ",$960.38 ,$960.00 ,"$12,130.00 ","$13,919 ",12.6,"938,031.00",2648,,355,2.73,,,
Central Civil Estate,"Department for Business, Innovation and Skills",BIS - COMPETITION COMMISSION,London,445918,CC COURT,CC COURT SPACE,SOUTHAMPTON ROW,WC1B 4AD,51.5192261,-0.122180065,"1,129.00",Not Known,Specialised,Unknown,Court/Tribunal,,,,,,,,,,,,,,,,,,,,,,,,,,,,,,
Central Civil Estate,"Department for Business, Innovation and Skills",BIS - COMPETITION COMMISSION,London,445918,Racking Space,ARCHIVE RACKING SPACE,SOUTHAMPTON ROW,WC1B 4AD,51.5192261,-0.122180065,489,Concrete,Storage  -  Permanent,Unknown,Storage,,,,,'107501950000, ,,,,,,,,,,,,,,,,,,,,,,,,
Central Civil Estate,"Department for Business, Innovation and Skills",BIS - COMPETITION COMMISSION,London,445918,CC/Cafe,CC SHARED CAFE,SOUTHAMPTON ROW,WC1B 4AD,51.5192261,-0.122180065,249,Not Known,Specialised,Unknown,Specialist,1,,,,,,,,,,,,,,,,,,,,,,,,,,,,,
Central Civil Estate,"Department for Business, Innovation and Skills",BIS - COMPETITION COMMISSION,London,445918,CC/7/CS,CC 7th FLOOR COMMON SPACE,SOUTHAMPTON ROW,WC1B 4AD,51.5192261,-0.122180065,168.5,Not Known,Specialised,1900  -  1925,Mixed Use,,,Not BSAHI,,,,,,,,,,,,,,,,,,,,,,,,,,,
Central Civil Estate,"Department for Business, Innovation and Skills",BIS - CONSTRUCTION INDUSTRY TRAINING BOARD,South West,277693,CSkills12,Exeter Office,RYDON LANE,EX2 5AZ,50.70910536,-3.487768887,157.98,Not Known,"Average, NOT Air Conditioned, Good but Older",Unknown,Office,,,Not BSAHI,,,,,,,,,,,,,,,,,,,,,,,,,,,
Central Civil Estate,"Department for Business, Innovation and Skills",BIS - CONSTRUCTION INDUSTRY TRAINING BOARD,South East,442804,CSkills9,Eastleigh Office,UPPER MARKET STREET,SO50 9FD,50.97012104,-1.35145376,575.5,Not Known,"Average, NOT Air Conditioned, Good but Older",Unknown,Office,,,Not BSAHI,,,,,,,,,,,,,,,,,,,,,,,,,,,
Central Civil Estate,"Department for Business, Innovation and Skills",BIS - CONSTRUCTION INDUSTRY TRAINING BOARD,East of England,816887,CSkills15,CSkills - Cambridge,CHIVERS WAY,CB24 9AD,52.24366006,0.109839767,100,Not Known,"Good to Average, Air Conditioned",Unknown,Office,,,Not BSAHI,,,,,,,,,,,,,,,,,,,,,,,,,,,
Central Civil Estate,"Department for Business, Innovation and Skills",BIS - CONSTRUCTION INDUSTRY TRAINING BOARD,East of England,818675,SWIMMING POOL,36,,PE31 6RH,52.87219636,0.656294585,788,Not Known,Specialised,Unknown,Other,,,Not BSAHI,,,,,,,,,,,,,,,,,,,,,,,,,,,
Central Civil Estate,"Department for Business, Innovation and Skills",BIS - CONSTRUCTION INDUSTRY TRAINING BOARD,East of England,818675,Nor130,BUILDING 130,,PE31 6RH,52.87219636,0.656294585,996,Not Known,"Average, NOT Air Conditioned, Good but Older",Unknown,Office,,,Not BSAHI,,,,,,,,,,,,,,,,,,,,,,,,,,,
Central Civil Estate,"Department for Business, Innovation and Skills",BIS - CONSTRUCTION INDUSTRY TRAINING BOARD,East of England,818675,Nor/1,Admin 1,,PE31 6RH,52.87219636,0.656294585,798,Concrete,"Average, NOT Air Conditioned, Good but Older",1926  -  1949,Office,3,,Not BSAHI,,,,,,,,,,,,,,,,,,,,,,,,,,,
Central Civil Estate,"Department for Business, Innovation and Skills",BIS - CONSTRUCTION INDUSTRY TRAINING BOARD,East of England,818675,Nor/16,16,,PE31 6RH,52.87219636,0.656294585,"1,273.00",Concrete,"Average, NOT Air Conditioned, Good but Older",Unknown,Office,2,,Not BSAHI,,,,,,,,,,,,,,,,,,,,,,,,,,,
Central Civil Estate,"Department for Business, Innovation and Skills",BIS - CONSTRUCTION INDUSTRY TRAINING BOARD,East of England,818675,Nor14/Access,14,,PE31 6RH,52.87219636,0.656294585,"5,084.00",Concrete,Specialised,Unknown,Other,2,,Not BSAHI,,,,,,,,,,,,,,,,,,,,,,,,,,,
Central Civil Estate,"Department for Business, Innovation and Skills",BIS - CONSTRUCTION INDUSTRY TRAINING BOARD,East of England,818675,Nor/V Block,21,,PE31 6RH,52.87219636,0.656294585,380,Concrete,"Average, NOT Air Conditioned, Good but Older",Unknown,Office,2,,Not BSAHI,,,,,,,,,,,,,,,,,,,,,,,,,,,
Central Civil Estate,"Department for Business, Innovation and Skills",BIS - CONSTRUCTION INDUSTRY TRAINING BOARD,East of England,818675,Nor/22 Reception,22,,PE31 6RH,52.87219636,0.656294585,423,Concrete,"Average, NOT Air Conditioned, Good but Older",Unknown,Office,1,,Not BSAHI,,,,,,,,,,,,,,,,,,,,,,,,,,,
Central Civil Estate,"Department for Business, Innovation and Skills",BIS - CONSTRUCTION INDUSTRY TRAINING BOARD,East of England,818675,Nor/82 Construction,82,,PE31 6RH,52.87219636,0.656294585,"5,598.00",Concrete,Specialised,Unknown,Other,2,,Not BSAHI,,,,,,,,,,,,,,,,,,,,,,,,,,,
Central Civil Estate,"Department for Business, Innovation and Skills",BIS - CONSTRUCTION INDUSTRY TRAINING BOARD,East of England,818675,Nor/49 Rest / Accounts,49,,PE31 6RH,52.87219636,0.656294585,"1,767.00",Concrete,Specialised,Unknown,Office,,,Not BSAHI,,,,,,,,,,,,,,,,,,,,,,,,,,,
Central Civil Estate,"Department for Business, Innovation and Skills",BIS - CONSTRUCTION INDUSTRY TRAINING BOARD,East of England,818675,Nor/80 Levy,80,,PE31 6RH,52.87219636,0.656294585,687,Not Known,"Average, NOT Air Conditioned, Good but Older",Unknown,Office,2,,Not BSAHI,,,,,,,,,,,,,,,,,,,,,,,,,,,
Central Civil Estate,"Department for Business, Innovation and Skills",BIS - CONSTRUCTION INDUSTRY TRAINING BOARD,East of England,818675,Nor/78 Call centre,78,,PE31 6RH,52.87219636,0.656294585,724,Not Known,"Good to Average, Air Conditioned",Unknown,Office,1,,Not BSAHI,,,,,,,,,,,,,,,,,,,,,,,,,,,
Central Civil Estate,"Department for Business, Innovation and Skills",BIS - CONSTRUCTION INDUSTRY TRAINING BOARD,East of England,818675,Nor116/ Plant,116,,PE31 6RH,52.87219636,0.656294585,"5,450.00",Not Known,"Average, NOT Air Conditioned, Good but Older",Unknown,Other,2,,Not BSAHI,,,,,,,,,,,,,,,,,,,,,,,,,,,
Central Civil Estate,"Department for Business, Innovation and Skills",BIS - CONSTRUCTION INDUSTRY TRAINING BOARD,East of England,818675,Nor146/Standards/ is/ post,146,,PE31 6RH,52.87219636,0.656294585,300,Not Known,"Average, NOT Air Conditioned, Good but Older",Unknown,Office,1,,Not BSAHI,,,,,,,,,,,,,,,,,,,,,,,,,,,
Central Civil Estate,"Department for Business, Innovation and Skills",BIS - CONSTRUCTION INDUSTRY TRAINING BOARD,East of England,818675,Nor/26,26,,PE31 6RH,52.87219636,0.656294585,726,Not Known,"Average, NOT Air Conditioned, Good but Older",Unknown,Office,2,,Not BSAHI,,,,,,,,,,,,,,,,,,,,,,,,,,,
Central Civil Estate,"Department for Business, Innovation and Skills",BIS - CONSTRUCTION INDUSTRY TRAINING BOARD,East of England,818675,Nor152/Birches,152,,PE31 6RH,52.87219636,0.656294585,"2,872.00",Not Known,"Good to Average, Air Conditioned",Unknown,Residential,2,,Not BSAHI,,,,,,,,,,,,,,,,,,,,,,,,,,,
Central Civil Estate,"Department for Business, Innovation and Skills",BIS - CONSTRUCTION INDUSTRY TRAINING BOARD,East of England,818675,Nor151/Study A,151,,PE31 6RH,52.87219636,0.656294585,735,Not Known,"Good to Average, Air Conditioned",Unknown,Office,,,Not BSAHI,,,,,,,,,,,,,,,,,,,,,,,,,,,
Central Civil Estate,"Department for Business, Innovation and Skills",BIS - CONSTRUCTION INDUSTRY TRAINING BOARD,East of England,818675,Nor48/Acco,48,,PE31 6RH,52.87219636,0.656294585,519,Not Known,"Average, NOT Air Conditioned, Good but Older",Unknown,Residential,,,Not BSAHI,,,,,,,,,,,,,,,,,,,,,,,,,,,
Central Civil Estate,"Department for Business, Innovation and Skills",BIS - CONSTRUCTION INDUSTRY TRAINING BOARD,East of England,818675,Nor47/Accom,47,,PE31 6RH,52.87219636,0.656294585,511,Not Known,"Average, NOT Air Conditioned, Good but Older",Unknown,Residential,2,,Not BSAHI,,,,,,,,,,,,,,,,,,,,,,,,,,,
Central Civil Estate,"Department for Business, Innovation and Skills",BIS - CONSTRUCTION INDUSTRY TRAINING BOARD,East of England,818675,Nor45/Accom,45,,PE31 6RH,52.87219636,0.656294585,519,Not Known,"Average, NOT Air Conditioned, Good but Older",Unknown,Residential,2,,Not BSAHI,,,,,,,,,,,,,,,,,,,,,,,,,,,
Central Civil Estate,"Department for Business, Innovation and Skills",BIS - CONSTRUCTION INDUSTRY TRAINING BOARD,East of England,818675,Nor46/Accom,46,,PE31 6RH,52.87219636,0.656294585,511,Not Known,"Average, NOT Air Conditioned, Good but Older",Unknown,Residential,2,,Not BSAHI,,,,,,,,,,,,,,,,,,,,,,,,,,,
Central Civil Estate,"Department for Business, Innovation and Skills",BIS - CONSTRUCTION INDUSTRY TRAINING BOARD,East of England,818675,Nor65/Accom,65,,PE31 6RH,52.87219636,0.656294585,613,Not Known,"Average, NOT Air Conditioned, Good but Older",Unknown,Residential,2,,Not BSAHI,,,,,,,,,,,,,,,,,,,,,,,,,,,
Central Civil Estate,"Department for Business, Innovation and Skills",BIS - CONSTRUCTION INDUSTRY TRAINING BOARD,East of England,818675,Nor44/Accom,44,,PE31 6RH,52.87219636,0.656294585,134,Not Known,"Average, NOT Air Conditioned, Good but Older",Unknown,Office,1,,Not BSAHI,,,,,,,,,,,,,,,,,,,,,,,,,,,
Central Civil Estate,"Department for Business, Innovation and Skills",BIS - CONSTRUCTION INDUSTRY TRAINING BOARD,East of England,818675,Nor43/?,43,,PE31 6RH,52.87219636,0.656294585,369,Not Known,"Good to Average, Air Conditioned",Unknown,Office,1,,Not BSAHI,,,,,,,,,,,,,,,,,,,,,,,,,,,
Central Civil Estate,"Department for Business, Innovation and Skills",BIS - CONSTRUCTION INDUSTRY TRAINING BOARD,East of England,818675,Nor38/F Block,38,,PE31 6RH,52.87219636,0.656294585,910,Not Known,"Average, NOT Air Conditioned, Good but Older",Unknown,Residential,2,,Not BSAHI,,,,,,,,,,,,,,,,,,,,,,,,,,,
Central Civil Estate,"Department for Business, Innovation and Skills",BIS - CONSTRUCTION INDUSTRY TRAINING BOARD,East of England,818675,Nor/67/G Block,67,,PE31 6RH,52.87219636,0.656294585,"1,200.00",Not Known,"Average, NOT Air Conditioned, Good but Older",Unknown,Residential,2,,Not BSAHI,,,,,,,,,,,,,,,,,,,,,,,,,,,
Central Civil Estate,"Department for Business, Innovation and Skills",BIS - CONSTRUCTION INDUSTRY TRAINING BOARD,East of England,818675,Nor70/H Block,70,,PE31 6RH,52.87219636,0.656294585,910,Not Known,"Average, NOT Air Conditioned, Good but Older",Unknown,Residential,2,,Not BSAHI,,,,,,,,,,,,,,,,,,,,,,,,,,,
Central Civil Estate,"Department for Business, Innovation and Skills",BIS - CONSTRUCTION INDUSTRY TRAINING BOARD,East of England,818675,Nor68/Accom,68,,PE31 6RH,52.87219636,0.656294585,"1,200.00",Not Known,"Average, NOT Air Conditioned, Good but Older",Unknown,Residential,,,Not BSAHI,,,,,,,,,,,,,,,,,,,,,,,,,,,
Central Civil Estate,"Department for Business, Innovation and Skills",BIS - CONSTRUCTION INDUSTRY TRAINING BOARD,Scotland,819204,ML15524,PRITCHARD HOUSE,INGLIS GREEN ROAD,EH14 2ER,55.92512405,-3.255041283,406.56,Not Known,"Average, NOT Air Conditioned, Good but Older",Unknown,Office,,,Not BSAHI,,,,,,,,,,,,,,,,,,,,,,,,,,,
Central Civil Estate,"Department for Business, Innovation and Skills",BIS - CONSTRUCTION INDUSTRY TRAINING BOARD,Scotland,820197,Cskills3,Arbroath College,KEPTIE ROAD,DD11 3EA,56.55980536,-2.595003602,55.2,Not Known,"Average, NOT Air Conditioned, Good but Older",Unknown,Office,,,Not BSAHI,,,,,,,,,,,,,,,,,,,,,,,,,,,
Central Civil Estate,"Department for Business, Innovation and Skills",BIS - CONSTRUCTION INDUSTRY TRAINING BOARD,East Midlands,820198,NCC4,Portacabin,LADY HOLE LANE,DE6 1LR,53.00323651,-1.68252665,185,Not Known,"Portakabins, etc.",Unknown,Office,,,Not BSAHI,,,,,,,,,,,,,,,,,,,,,,,,,,,
Central Civil Estate,"Department for Business, Innovation and Skills",BIS - CONSTRUCTION INDUSTRY TRAINING BOARD,West Midlands,820199,Birmingham CC,Conference Centre,LIFFORD LANE,B30 3JH,52.41713254,-1.919559057,85,Not Known,"Good to Average, Air Conditioned",Unknown,Other,,,Not BSAHI,,,,,,,,,,,,,,,,,,,,,,,,,,,
Central Civil Estate,"Department for Business, Innovation and Skills",BIS - CONSTRUCTION INDUSTRY TRAINING BOARD,West Midlands,820199,NCC6,Birmingham Office,LIFFORD LANE,B30 3JH,52.41713254,-1.919559057,217,Not Known,Standard Office Building,Unknown,Office,,,Not BSAHI,,,,,,,,,,,,,,,,,,,,,,,,,,,
Central Civil Estate,"Department for Business, Innovation and Skills",BIS - CONSTRUCTION INDUSTRY TRAINING BOARD,West Midlands,820199,NCC6,Resturant,LIFFORD LANE,B30 3JH,52.41713254,-1.919559057,223,Not Known,"Portakabins, etc.",Unknown,Other,,,Not BSAHI,,,,,,,,,,,,,,,,,,,,,,,,,,,
Central Civil Estate,"Department for Business, Innovation and Skills",BIS - CONSTRUCTION INDUSTRY TRAINING BOARD,West Midlands,820199,NCC6,Lecture Room 1,LIFFORD LANE,B30 3JH,52.41713254,-1.919559057,414,Not Known,"Portakabins, etc.",Unknown,Other,,,Not BSAHI,,,,,,,,,,,,,,,,,,,,,,,,,,,
Central Civil Estate,"Department for Business, Innovation and Skills",BIS - CONSTRUCTION INDUSTRY TRAINING BOARD,West Midlands,820199,NCC6,Lecture Room 2,LIFFORD LANE,B30 3JH,52.41713254,-1.919559057,143,Not Known,"Portakabins, etc.",Unknown,Office,,,Not BSAHI,,,,,,,,,,,,,,,,,,,,,,,,,,,
Central Civil Estate,"Department for Business, Innovation and Skills",BIS - CONSTRUCTION INDUSTRY TRAINING BOARD,London,820200,NCC11,Erith Office NCC,MANOR ROAD,DA8 2AD,51.47671954,0.195599833,314,Not Known,"Portakabins, etc.",Unknown,Office,,,Not BSAHI,,,,,,,,,,,,,,,,,,,,,,,,,,,
Central Civil Estate,"Department for Business, Innovation and Skills",BIS - CONSTRUCTION INDUSTRY TRAINING BOARD,London,820200,NCC11,Canteen,MANOR ROAD,DA8 2AD,51.47671954,0.195599833,386,Not Known,"Portakabins, etc.",Unknown,Other,,,Not BSAHI,,,,,,,,,,,,,,,,,,,,,,,,,,,
Central Civil Estate,"Department for Business, Innovation and Skills",BIS - CONSTRUCTION INDUSTRY TRAINING BOARD,London,820200,NCC11,Lecture Room 1,MANOR ROAD,DA8 2AD,51.47671954,0.195599833,230,Not Known,"Portakabins, etc.",Unknown,Other,,,Not BSAHI,,,,,,,,,,,,,,,,,,,,,,,,,,,
Central Civil Estate,"Department for Business, Innovation and Skills",BIS - CONSTRUCTION INDUSTRY TRAINING BOARD,London,820200,NCC11,Lecture Room 2,MANOR ROAD,DA8 2AD,51.47671954,0.195599833,245,Not Known,"Portakabins, etc.",Unknown,Other,,,Not BSAHI,,,,,,,,,,,,,,,,,,,,,,,,,,,
Central Civil Estate,"Department for Business, Innovation and Skills",BIS - CONSTRUCTION INDUSTRY TRAINING BOARD,London,820200,NCC11,Lecture Room 3,MANOR ROAD,DA8 2AD,51.47671954,0.195599833,130,Not Known,"Portakabins, etc.",Unknown,Other,,,Not BSAHI,,,,,,,,,,,,,,,,,,,,,,,,,,,
Central Civil Estate,"Department for Business, Innovation and Skills",BIS - CONSTRUCTION INDUSTRY TRAINING BOARD,London,820200,NCC11,Training Building 1,MANOR ROAD,DA8 2AD,51.47671954,0.195599833,"1,253.00",Not Known,Specialised,Unknown,Office,,,Not BSAHI,,,,,,,,,,,,,,,,,,,,,,,,,,,
Central Civil Estate,"Department for Business, Innovation and Skills",BIS - CONSTRUCTION INDUSTRY TRAINING BOARD,London,820200,NCC11,Training Building 2,MANOR ROAD,DA8 2AD,51.47671954,0.195599833,382,Not Known,"Average, NOT Air Conditioned, Good but Older",Unknown,Other,,,Not BSAHI,,,,,,,,,,,,,,,,,,,,,,,,,,,
Central Civil Estate,"Department for Business, Innovation and Skills",BIS - CONSTRUCTION INDUSTRY TRAINING BOARD,London,820200,NCC11,Training Building 3,MANOR ROAD,DA8 2AD,51.47671954,0.195599833,182,Not Known,"Average, NOT Air Conditioned, Good but Older",Unknown,Other,,,Not BSAHI,,,,,,,,,,,,,,,,,,,,,,,,,,,
Central Civil Estate,"Department for Business, Innovation and Skills",BIS - CONSTRUCTION INDUSTRY TRAINING BOARD,London,820200,NCC11,Training Building 4,MANOR ROAD,DA8 2AD,51.47671954,0.195599833,"2,823.00",Not Known,"Average, NOT Air Conditioned, Good but Older",Unknown,Other,,,Not BSAHI,,,,,,,,,,,,,,,,,,,,,,,,,,,
Central Civil Estate,"Department for Business, Innovation and Skills",BIS - CONSTRUCTION INDUSTRY TRAINING BOARD,London,820201,NCC,Thames House,BASIN SOUTH,E16 2QY,51.5043236,0.076360127,"2,136.00",Not Known,Top Quality but NOT Air Conditioned,Unknown,Specialist,,,Not BSAHI,,,,,,,,,,,,,,,,,,,,,,,,,,,
Central Civil Estate,"Department for Business, Innovation and Skills",BIS - CONSTRUCTION INDUSTRY TRAINING BOARD,Wales,820283,CSkills7,CSkills Bridgend Office,BENNETT STREET,CF31 3SH,51.50203212,-3.539748039,313.3,Not Known,"Average, NOT Air Conditioned, Good but Older",Unknown,Office,,,Not BSAHI,,,,,,,,,,,,,,,,,,,,,,,,,,,
Central Civil Estate,"Department for Business, Innovation and Skills",BIS - CONSTRUCTION INDUSTRY TRAINING BOARD,Yorkshire and the Humber,820306,CSkills20,Morley Office,QUEEN STREET,LS27 9EL,53.74367237,-1.600316711,545.2,Not Known,"Average, NOT Air Conditioned, Good but Older",Unknown,Office,,,Not BSAHI,,,,,,,,,,,,,,,,,,,,,,,,,,,
Central Civil Estate,"Department for Business, Innovation and Skills",BIS - CONSTRUCTION INDUSTRY TRAINING BOARD,Scotland,820315,CSkills15,Inverness Office,BEECHWOOD PARK,IV2 3JJ,57.47259046,-4.185926605,197.19,Not Known,"Average, NOT Air Conditioned, Good but Older",Unknown,Office,,,Not BSAHI,,,,,,,,,,,,,,,,,,,,,,,,,,,
Central Civil Estate,"Department for Business, Innovation and Skills",BIS - CONSTRUCTION INDUSTRY TRAINING BOARD,London,820316,Cskills16,Carthusian Court,CARTHUSIAN STREET,EC1M 6EB,51.52037614,-0.098118461,502,Not Known,"Good to Average, Air Conditioned",Unknown,Office,,,Not BSAHI,,,,,,,,,,,,,,,,,,,,,,,,,,,
Central Civil Estate,"Department for Business, Innovation and Skills",BIS - CONSUMER FOCUS,South West,153434,1,"UNIT 1, HIDE MARKET",WEST STREET,BS2 0BH,51.45671114,-2.578432124,316.7,Not Known,"Average, NOT Air Conditioned, Good but Older",1980  -  1989,Office,3,,,,,,,,,,,,,,,,,,,,,,,,,,,,,
Central Civil Estate,"Department for Business, Innovation and Skills",BIS - CONSUMER FOCUS,Wales,387734,CF4,Portcullis House,COWBRIDGE ROAD EAST,CF11 9SS,51.48120826,-3.187859994,584,Not Known,"Average, NOT Air Conditioned, Good but Older",1960  -  1969,Office,1,28-Feb-11,Not BSAHI,,,,,,,,,,,,,,,,,,,,,,,,,,,
Central Civil Estate,"Department for Business, Innovation and Skills",BIS - CONSUMER FOCUS,Scotland,589314,Glasgow,Royal Exchange House,QUEEN STREET,G1 3DN,55.85978783,-4.251492752,787,Not Known,"Average, NOT Air Conditioned, Good but Older",Unknown,Office,1,,Not BSAHI,,,,,,,,,,787,60,82,"$317,478 ","$245,029.00 ",$311.35 ,$311.00 ,"$4,084.00 ","$5,291 ",13.1,"67,561.00",,,32,0.54,,,
Central Civil Estate,"Department for Business, Innovation and Skills",BIS - CORE,London,37754,1, 10 VICTORIA STREET,VICTORIA STREET,SW1H 0NN,51.49919096,-0.13120162,"7,432.00",Concrete,"Good to Average, Air Conditioned",1960  -  1969,Office,10,01-Jan-96,,9522-1022-0093-0190-1805,'523081220000,E,113,,,,,,,,,,,,,,,,,,,,,,,
Central Civil Estate,"Department for Business, Innovation and Skills",BIS - CORE,London,38731,1, 1 VICTORIA STREET,VICTORIA STREET,SW1H 0ET,51.49876469,-0.130974129,"31,133.20",Concrete,"Top Quality, Air Conditioned",1960  -  1969,Office,,,,0160-0219-4889-7602-7092,'678872640000,E,109,,,,,,29732,2952,2542,"$19,989,681 ","$17,109,794.00 ",$549.57 ,$575.00 ,"$5,796.00 ","$6,772 ",10.1,"8,662,275.00",23382,,3719,1.26,,,
Central Civil Estate,"Department for Business, Innovation and Skills",BIS - CORE,London,87340,1, 21 Bloomsbury Street,BLOOMSBURY STREET,WC1B 3SS,51.5181755,-0.128464375,"7,373.50",Not Known,"Good to Average, Air Conditioned",Unknown,Office,,,Not BSAHI,0950-3931-0170-1450-9034,'337319510000,D,91,,,,,,4315,390,520,,"$3,067,606.00 ",$416.03 ,$711.00 ,"$7,866.00 ",,11.1,"2,002,893.00",3815,,935,2.4,,,
Central Civil Estate,"Department for Business, Innovation and Skills",BIS - CORE,London,87601,1, 151 BUCKINGHAM PALACE ROAD,BUCKINGHAM PALACE ROAD,SW1W 9SS,51.49321798,-0.146946455,"17,401.30",Concrete,"Top Quality, Air Conditioned",1980  -  1989,Office,,,Not BSAHI,0990-0519-5739-7990-6096,'973765950000,G,162,,,,,,,,,,,,,,,,,,,,,,,
,,,,,,,,,,,,,,,,,,,,,,,,,,,,,,,,,,,,,,,,,,,,,
,,,,,,,,,,,,,,,,,,,,,,,,,,,,,,,,,,,,,,,,,,,,,
,,,,,,,,,,,,,,,,,,,,,,,,,,,,,,,,,,,,,,,,,,,,,
,,,,,,,,,,,,,,,,,,,,,,,,,,,,,,,,,,,,,,,,,,,,,
,,,,,,,,,,,,,,,,,,,,,,,,,,,,,,,,,,,,,,,,,,,,,
,,,,,,,,,,,,,,,,,,,,,,,,,,,,,,,,,,,,,,,,,,,,,
,,,,,,,,,,,,,,,,,,,,,,,,,,,,,,,,,,,,,,,,,,,,,
,,,,,,,,,,,,,,,,,,,,,,,,,,,,,,,,,,,,,,,,,,,,,
,,,,,,,,,,,,,,,,,,,,,,,,,,,,,,,,,,,,,,,,,,,,,
,,,,,,,,,,,,,,,,,,,,,,,,,,,,,,,,,,,,,,,,,,,,,
,,,,,,,,,,,,,,,,,,,,,,,,,,,,,,,,,,,,,,,,,,,,,
,,,,,,,,,,,,,,,,,,,,,,,,,,,,,,,,,,,,,,,,,,,,,
,,,,,,,,,,,,,,,,,,,,,,,,,,,,,,,,,,,,,,,,,,,,,
,,,,,,,,,,,,,,,,,,,,,,,,,,,,,,,,,,,,,,,,,,,,,
,,,,,,,,,,,,,,,,,,,,,,,,,,,,,,,,,,,,,,,,,,,,,
,,,,,,,,,,,,,,,,,,,,,,,,,,,,,,,,,,,,,,,,,,,,,
,,,,,,,,,,,,,,,,,,,,,,,,,,,,,,,,,,,,,,,,,,,,,
,,,,,,,,,,,,,,,,,,,,,,,,,,,,,,,,,,,,,,,,,,,,,
,,,,,,,,,,,,,,,,,,,,,,,,,,,,,,,,,,,,,,,,,,,,,
,,,,,,,,,,,,,,,,,,,,,,,,,,,,,,,,,,,,,,,,,,,,,
,,,,,,,,,,,,,,,,,,,,,,,,,,,,,,,,,,,,,,,,,,,,,
,,,,,,,,,,,,,,,,,,,,,,,,,,,,,,,,,,,,,,,,,,,,,
,,,,,,,,,,,,,,,,,,,,,,,,,,,,,,,,,,,,,,,,,,,,,
,,,,,,,,,,,,,,,,,,,,,,,,,,,,,,,,,,,,,,,,,,,,,
,,,,,,,,,,,,,,,,,,,,,,,,,,,,,,,,,,,,,,,,,,,,,
,,,,,,,,,,,,,,,,,,,,,,,,,,,,,,,,,,,,,,,,,,,,,
,,,,,,,,,,,,,,,,,,,,,,,,,,,,,,,,,,,,,,,,,,,,,
,,,,,,,,,,,,,,,,,,,,,,,,,,,,,,,,,,,,,,,,,,,,,
,,,,,,,,,,,,,,,,,,,,,,,,,,,,,,,,,,,,,,,,,,,,,
,,,,,,,,,,,,,,,,,,,,,,,,,,,,,,,,,,,,,,,,,,,,,
,,,,,,,,,,,,,,,,,,,,,,,,,,,,,,,,,,,,,,,,,,,,,
,,,,,,,,,,,,,,,,,,,,,,,,,,,,,,,,,,,,,,,,,,,,,
,,,,,,,,,,,,,,,,,,,,,,,,,,,,,,,,,,,,,,,,,,,,,
,,,,,,,,,,,,,,,,,,,,,,,,,,,,,,,,,,,,,,,,,,,,,
,,,,,,,,,,,,,,,,,,,,,,,,,,,,,,,,,,,,,,,,,,,,,
,,,,,,,,,,,,,,,,,,,,,,,,,,,,,,,,,,,,,,,,,,,,,
,,,,,,,,,,,,,,,,,,,,,,,,,,,,,,,,,,,,,,,,,,,,,
,,,,,,,,,,,,,,,,,,,,,,,,,,,,,,,,,,,,,,,,,,,,,
,,,,,,,,,,,,,,,,,,,,,,,,,,,,,,,,,,,,,,,,,,,,,
,,,,,,,,,,,,,,,,,,,,,,,,,,,,,,,,,,,,,,,,,,,,,
,,,,,,,,,,,,,,,,,,,,,,,,,,,,,,,,,,,,,,,,,,,,,
,,,,,,,,,,,,,,,,,,,,,,,,,,,,,,,,,,,,,,,,,,,,,
,,,,,,,,,,,,,,,,,,,,,,,,,,,,,,,,,,,,,,,,,,,,,
,,,,,,,,,,,,,,,,,,,,,,,,,,,,,,,,,,,,,,,,,,,,,
,,,,,,,,,,,,,,,,,,,,,,,,,,,,,,,,,,,,,,,,,,,,,
,,,,,,,,,,,,,,,,,,,,,,,,,,,,,,,,,,,,,,,,,,,,,
,,,,,,,,,,,,,,,,,,,,,,,,,,,,,,,,,,,,,,,,,,,,,
,,,,,,,,,,,,,,,,,,,,,,,,,,,,,,,,,,,,,,,,,,,,,
,,,,,,,,,,,,,,,,,,,,,,,,,,,,,,,,,,,,,,,,,,,,,
,,,,,,,,,,,,,,,,,,,,,,,,,,,,,,,,,,,,,,,,,,,,,
,,,,,,,,,,,,,,,,,,,,,,,,,,,,,,,,,,,,,,,,,,,,,
,,,,,,,,,,,,,,,,,,,,,,,,,,,,,,,,,,,,,,,,,,,,,
,,,,,,,,,,,,,,,,,,,,,,,,,,,,,,,,,,,,,,,,,,,,,
,,,,,,,,,,,,,,,,,,,,,,,,,,,,,,,,,,,,,,,,,,,,,
,,,,,,,,,,,,,,,,,,,,,,,,,,,,,,,,,,,,,,,,,,,,,
,,,,,,,,,,,,,,,,,,,,,,,,,,,,,,,,,,,,,,,,,,,,,
,,,,,,,,,,,,,,,,,,,,,,,,,,,,,,,,,,,,,,,,,,,,,
,,,,,,,,,,,,,,,,,,,,,,,,,,,,,,,,,,,,,,,,,,,,,
,,,,,,,,,,,,,,,,,,,,,,,,,,,,,,,,,,,,,,,,,,,,,
,,,,,,,,,,,,,,,,,,,,,,,,,,,,,,,,,,,,,,,,,,,,,
,,,,,,,,,,,,,,,,,,,,,,,,,,,,,,,,,,,,,,,,,,,,,
,,,,,,,,,,,,,,,,,,,,,,,,,,,,,,,,,,,,,,,,,,,,,
,,,,,,,,,,,,,,,,,,,,,,,,,,,,,,,,,,,,,,,,,,,,,
,,,,,,,,,,,,,,,,,,,,,,,,,,,,,,,,,,,,,,,,,,,,,
,,,,,,,,,,,,,,,,,,,,,,,,,,,,,,,,,,,,,,,,,,,,,
,,,,,,,,,,,,,,,,,,,,,,,,,,,,,,,,,,,,,,,,,,,,,
,,,,,,,,,,,,,,,,,,,,,,,,,,,,,,,,,,,,,,,,,,,,,
,,,,,,,,,,,,,,,,,,,,,,,,,,,,,,,,,,,,,,,,,,,,,
,,,,,,,,,,,,,,,,,,,,,,,,,,,,,,,,,,,,,,,,,,,,,
,,,,,,,,,,,,,,,,,,,,,,,,,,,,,,,,,,,,,,,,,,,,,
,,,,,,,,,,,,,,,,,,,,,,,,,,,,,,,,,,,,,,,,,,,,,
,,,,,,,,,,,,,,,,,,,,,,,,,,,,,,,,,,,,,,,,,,,,,
,,,,,,,,,,,,,,,,,,,,,,,,,,,,,,,,,,,,,,,,,,,,,
,,,,,,,,,,,,,,,,,,,,,,,,,,,,,,,,,,,,,,,,,,,,,
,,,,,,,,,,,,,,,,,,,,,,,,,,,,,,,,,,,,,,,,,,,,,
,,,,,,,,,,,,,,,,,,,,,,,,,,,,,,,,,,,,,,,,,,,,,
,,,,,,,,,,,,,,,,,,,,,,,,,,,,,,,,,,,,,,,,,,,,,
,,,,,,,,,,,,,,,,,,,,,,,,,,,,,,,,,,,,,,,,,,,,,
,,,,,,,,,,,,,,,,,,,,,,,,,,,,,,,,,,,,,,,,,,,,,
,,,,,,,,,,,,,,,,,,,,,,,,,,,,,,,,,,,,,,,,,,,,,
,,,,,,,,,,,,,,,,,,,,,,,,,,,,,,,,,,,,,,,,,,,,,
,,,,,,,,,,,,,,,,,,,,,,,,,,,,,,,,,,,,,,,,,,,,,
,,,,,,,,,,,,,,,,,,,,,,,,,,,,,,,,,,,,,,,,,,,,,
,,,,,,,,,,,,,,,,,,,,,,,,,,,,,,,,,,,,,,,,,,,,,
,,,,,,,,,,,,,,,,,,,,,,,,,,,,,,,,,,,,,,,,,,,,,
,,,,,,,,,,,,,,,,,,,,,,,,,,,,,,,,,,,,,,,,,,,,,
,,,,,,,,,,,,,,,,,,,,,,,,,,,,,,,,,,,,,,,,,,,,,
,,,,,,,,,,,,,,,,,,,,,,,,,,,,,,,,,,,,,,,,,,,,,
,,,,,,,,,,,,,,,,,,,,,,,,,,,,,,,,,,,,,,,,,,,,,
,,,,,,,,,,,,,,,,,,,,,,,,,,,,,,,,,,,,,,,,,,,,,
,,,,,,,,,,,,,,,,,,,,,,,,,,,,,,,,,,,,,,,,,,,,,
,,,,,,,,,,,,,,,,,,,,,,,,,,,,,,,,,,,,,,,,,,,,,
,,,,,,,,,,,,,,,,,,,,,,,,,,,,,,,,,,,,,,,,,,,,,
,,,,,,,,,,,,,,,,,,,,,,,,,,,,,,,,,,,,,,,,,,,,,
,,,,,,,,,,,,,,,,,,,,,,,,,,,,,,,,,,,,,,,,,,,,,
,,,,,,,,,,,,,,,,,,,,,,,,,,,,,,,,,,,,,,,,,,,,,
,,,,,,,,,,,,,,,,,,,,,,,,,,,,,,,,,,,,,,,,,,,,,
,,,,,,,,,,,,,,,,,,,,,,,,,,,,,,,,,,,,,,,,,,,,,
,,,,,,,,,,,,,,,,,,,,,,,,,,,,,,,,,,,,,,,,,,,,,
,,,,,,,,,,,,,,,,,,,,,,,,,,,,,,,,,,,,,,,,,,,,,
,,,,,,,,,,,,,,,,,,,,,,,,,,,,,,,,,,,,,,,,,,,,,
,,,,,,,,,,,,,,,,,,,,,,,,,,,,,,,,,,,,,,,,,,,,,
,,,,,,,,,,,,,,,,,,,,,,,,,,,,,,,,,,,,,,,,,,,,,
,,,,,,,,,,,,,,,,,,,,,,,,,,,,,,,,,,,,,,,,,,,,,
,,,,,,,,,,,,,,,,,,,,,,,,,,,,,,,,,,,,,,,,,,,,,
,,,,,,,,,,,,,,,,,,,,,,,,,,,,,,,,,,,,,,,,,,,,,
,,,,,,,,,,,,,,,,,,,,,,,,,,,,,,,,,,,,,,,,,,,,,
,,,,,,,,,,,,,,,,,,,,,,,,,,,,,,,,,,,,,,,,,,,,,
,,,,,,,,,,,,,,,,,,,,,,,,,,,,,,,,,,,,,,,,,,,,,
,,,,,,,,,,,,,,,,,,,,,,,,,,,,,,,,,,,,,,,,,,,,,
,,,,,,,,,,,,,,,,,,,,,,,,,,,,,,,,,,,,,,,,,,,,,
,,,,,,,,,,,,,,,,,,,,,,,,,,,,,,,,,,,,,,,,,,,,,
,,,,,,,,,,,,,,,,,,,,,,,,,,,,,,,,,,,,,,,,,,,,,
,,,,,,,,,,,,,,,,,,,,,,,,,,,,,,,,,,,,,,,,,,,,,
,,,,,,,,,,,,,,,,,,,,,,,,,,,,,,,,,,,,,,,,,,,,,
,,,,,,,,,,,,,,,,,,,,,,,,,,,,,,,,,,,,,,,,,,,,,
,,,,,,,,,,,,,,,,,,,,,,,,,,,,,,,,,,,,,,,,,,,,,
,,,,,,,,,,,,,,,,,,,,,,,,,,,,,,,,,,,,,,,,,,,,,
,,,,,,,,,,,,,,,,,,,,,,,,,,,,,,,,,,,,,,,,,,,,,
,,,,,,,,,,,,,,,,,,,,,,,,,,,,,,,,,,,,,,,,,,,,,
,,,,,,,,,,,,,,,,,,,,,,,,,,,,,,,,,,,,,,,,,,,,,
,,,,,,,,,,,,,,,,,,,,,,,,,,,,,,,,,,,,,,,,,,,,,
,,,,,,,,,,,,,,,,,,,,,,,,,,,,,,,,,,,,,,,,,,,,,
,,,,,,,,,,,,,,,,,,,,,,,,,,,,,,,,,,,,,,,,,,,,,
,,,,,,,,,,,,,,,,,,,,,,,,,,,,,,,,,,,,,,,,,,,,,
,,,,,,,,,,,,,,,,,,,,,,,,,,,,,,,,,,,,,,,,,,,,,
,,,,,,,,,,,,,,,,,,,,,,,,,,,,,,,,,,,,,,,,,,,,,
,,,,,,,,,,,,,,,,,,,,,,,,,,,,,,,,,,,,,,,,,,,,,
,,,,,,,,,,,,,,,,,,,,,,,,,,,,,,,,,,,,,,,,,,,,,
,,,,,,,,,,,,,,,,,,,,,,,,,,,,,,,,,,,,,,,,,,,,,
,,,,,,,,,,,,,,,,,,,,,,,,,,,,,,,,,,,,,,,,,,,,,
,,,,,,,,,,,,,,,,,,,,,,,,,,,,,,,,,,,,,,,,,,,,,
,,,,,,,,,,,,,,,,,,,,,,,,,,,,,,,,,,,,,,,,,,,,,
,,,,,,,,,,,,,,,,,,,,,,,,,,,,,,,,,,,,,,,,,,,,,
,,,,,,,,,,,,,,,,,,,,,,,,,,,,,,,,,,,,,,,,,,,,,
,,,,,,,,,,,,,,,,,,,,,,,,,,,,,,,,,,,,,,,,,,,,,
,,,,,,,,,,,,,,,,,,,,,,,,,,,,,,,,,,,,,,,,,,,,,
,,,,,,,,,,,,,,,,,,,,,,,,,,,,,,,,,,,,,,,,,,,,,
,,,,,,,,,,,,,,,,,,,,,,,,,,,,,,,,,,,,,,,,,,,,,
,,,,,,,,,,,,,,,,,,,,,,,,,,,,,,,,,,,,,,,,,,,,,
,,,,,,,,,,,,,,,,,,,,,,,,,,,,,,,,,,,,,,,,,,,,,
,,,,,,,,,,,,,,,,,,,,,,,,,,,,,,,,,,,,,,,,,,,,,
,,,,,,,,,,,,,,,,,,,,,,,,,,,,,,,,,,,,,,,,,,,,,
,,,,,,,,,,,,,,,,,,,,,,,,,,,,,,,,,,,,,,,,,,,,,
,,,,,,,,,,,,,,,,,,,,,,,,,,,,,,,,,,,,,,,,,,,,,
,,,,,,,,,,,,,,,,,,,,,,,,,,,,,,,,,,,,,,,,,,,,,
,,,,,,,,,,,,,,,,,,,,,,,,,,,,,,,,,,,,,,,,,,,,,
,,,,,,,,,,,,,,,,,,,,,,,,,,,,,,,,,,,,,,,,,,,,,
,,,,,,,,,,,,,,,,,,,,,,,,,,,,,,,,,,,,,,,,,,,,,
,,,,,,,,,,,,,,,,,,,,,,,,,,,,,,,,,,,,,,,,,,,,,
,,,,,,,,,,,,,,,,,,,,,,,,,,,,,,,,,,,,,,,,,,,,,
,,,,,,,,,,,,,,,,,,,,,,,,,,,,,,,,,,,,,,,,,,,,,
,,,,,,,,,,,,,,,,,,,,,,,,,,,,,,,,,,,,,,,,,,,,,
,,,,,,,,,,,,,,,,,,,,,,,,,,,,,,,,,,,,,,,,,,,,,
,,,,,,,,,,,,,,,,,,,,,,,,,,,,,,,,,,,,,,,,,,,,,
,,,,,,,,,,,,,,,,,,,,,,,,,,,,,,,,,,,,,,,,,,,,,
,,,,,,,,,,,,,,,,,,,,,,,,,,,,,,,,,,,,,,,,,,,,,
,,,,,,,,,,,,,,,,,,,,,,,,,,,,,,,,,,,,,,,,,,,,,
,,,,,,,,,,,,,,,,,,,,,,,,,,,,,,,,,,,,,,,,,,,,,
,,,,,,,,,,,,,,,,,,,,,,,,,,,,,,,,,,,,,,,,,,,,,
,,,,,,,,,,,,,,,,,,,,,,,,,,,,,,,,,,,,,,,,,,,,,
,,,,,,,,,,,,,,,,,,,,,,,,,,,,,,,,,,,,,,,,,,,,,
,,,,,,,,,,,,,,,,,,,,,,,,,,,,,,,,,,,,,,,,,,,,,
,,,,,,,,,,,,,,,,,,,,,,,,,,,,,,,,,,,,,,,,,,,,,
,,,,,,,,,,,,,,,,,,,,,,,,,,,,,,,,,,,,,,,,,,,,,
,,,,,,,,,,,,,,,,,,,,,,,,,,,,,,,,,,,,,,,,,,,,,
,,,,,,,,,,,,,,,,,,,,,,,,,,,,,,,,,,,,,,,,,,,,,
,,,,,,,,,,,,,,,,,,,,,,,,,,,,,,,,,,,,,,,,,,,,,
,,,,,,,,,,,,,,,,,,,,,,,,,,,,,,,,,,,,,,,,,,,,,
,,,,,,,,,,,,,,,,,,,,,,,,,,,,,,,,,,,,,,,,,,,,,
,,,,,,,,,,,,,,,,,,,,,,,,,,,,,,,,,,,,,,,,,,,,,
,,,,,,,,,,,,,,,,,,,,,,,,,,,,,,,,,,,,,,,,,,,,,
,,,,,,,,,,,,,,,,,,,,,,,,,,,,,,,,,,,,,,,,,,,,,
,,,,,,,,,,,,,,,,,,,,,,,,,,,,,,,,,,,,,,,,,,,,,
,,,,,,,,,,,,,,,,,,,,,,,,,,,,,,,,,,,,,,,,,,,,,
,,,,,,,,,,,,,,,,,,,,,,,,,,,,,,,,,,,,,,,,,,,,,
,,,,,,,,,,,,,,,,,,,,,,,,,,,,,,,,,,,,,,,,,,,,,
,,,,,,,,,,,,,,,,,,,,,,,,,,,,,,,,,,,,,,,,,,,,,
,,,,,,,,,,,,,,,,,,,,,,,,,,,,,,,,,,,,,,,,,,,,,
,,,,,,,,,,,,,,,,,,,,,,,,,,,,,,,,,,,,,,,,,,,,,
,,,,,,,,,,,,,,,,,,,,,,,,,,,,,,,,,,,,,,,,,,,,,
,,,,,,,,,,,,,,,,,,,,,,,,,,,,,,,,,,,,,,,,,,,,,
,,,,,,,,,,,,,,,,,,,,,,,,,,,,,,,,,,,,,,,,,,,,,
,,,,,,,,,,,,,,,,,,,,,,,,,,,,,,,,,,,,,,,,,,,,,
,,,,,,,,,,,,,,,,,,,,,,,,,,,,,,,,,,,,,,,,,,,,,
,,,,,,,,,,,,,,,,,,,,,,,,,,,,,,,,,,,,,,,,,,,,,
,,,,,,,,,,,,,,,,,,,,,,,,,,,,,,,,,,,,,,,,,,,,,
,,,,,,,,,,,,,,,,,,,,,,,,,,,,,,,,,,,,,,,,,,,,,
,,,,,,,,,,,,,,,,,,,,,,,,,,,,,,,,,,,,,,,,,,,,,
,,,,,,,,,,,,,,,,,,,,,,,,,,,,,,,,,,,,,,,,,,,,,
,,,,,,,,,,,,,,,,,,,,,,,,,,,,,,,,,,,,,,,,,,,,,
,,,,,,,,,,,,,,,,,,,,,,,,,,,,,,,,,,,,,,,,,,,,,
,,,,,,,,,,,,,,,,,,,,,,,,,,,,,,,,,,,,,,,,,,,,,
,,,,,,,,,,,,,,,,,,,,,,,,,,,,,,,,,,,,,,,,,,,,,
,,,,,,,,,,,,,,,,,,,,,,,,,,,,,,,,,,,,,,,,,,,,,
,,,,,,,,,,,,,,,,,,,,,,,,,,,,,,,,,,,,,,,,,,,,,
,,,,,,,,,,,,,,,,,,,,,,,,,,,,,,,,,,,,,,,,,,,,,
,,,,,,,,,,,,,,,,,,,,,,,,,,,,,,,,,,,,,,,,,,,,,
,,,,,,,,,,,,,,,,,,,,,,,,,,,,,,,,,,,,,,,,,,,,,
,,,,,,,,,,,,,,,,,,,,,,,,,,,,,,,,,,,,,,,,,,,,,
,,,,,,,,,,,,,,,,,,,,,,,,,,,,,,,,,,,,,,,,,,,,,
,,,,,,,,,,,,,,,,,,,,,,,,,,,,,,,,,,,,,,,,,,,,,
,,,,,,,,,,,,,,,,,,,,,,,,,,,,,,,,,,,,,,,,,,,,,
,,,,,,,,,,,,,,,,,,,,,,,,,,,,,,,,,,,,,,,,,,,,,
,,,,,,,,,,,,,,,,,,,,,,,,,,,,,,,,,,,,,,,,,,,,,
,,,,,,,,,,,,,,,,,,,,,,,,,,,,,,,,,,,,,,,,,,,,,
,,,,,,,,,,,,,,,,,,,,,,,,,,,,,,,,,,,,,,,,,,,,,
,,,,,,,,,,,,,,,,,,,,,,,,,,,,,,,,,,,,,,,,,,,,,
,,,,,,,,,,,,,,,,,,,,,,,,,,,,,,,,,,,,,,,,,,,,,
,,,,,,,,,,,,,,,,,,,,,,,,,,,,,,,,,,,,,,,,,,,,,
,,,,,,,,,,,,,,,,,,,,,,,,,,,,,,,,,,,,,,,,,,,,,
,,,,,,,,,,,,,,,,,,,,,,,,,,,,,,,,,,,,,,,,,,,,,
,,,,,,,,,,,,,,,,,,,,,,,,,,,,,,,,,,,,,,,,,,,,,
,,,,,,,,,,,,,,,,,,,,,,,,,,,,,,,,,,,,,,,,,,,,,
,,,,,,,,,,,,,,,,,,,,,,,,,,,,,,,,,,,,,,,,,,,,,
,,,,,,,,,,,,,,,,,,,,,,,,,,,,,,,,,,,,,,,,,,,,,
,,,,,,,,,,,,,,,,,,,,,,,,,,,,,,,,,,,,,,,,,,,,,
,,,,,,,,,,,,,,,,,,,,,,,,,,,,,,,,,,,,,,,,,,,,,
,,,,,,,,,,,,,,,,,,,,,,,,,,,,,,,,,,,,,,,,,,,,,
,,,,,,,,,,,,,,,,,,,,,,,,,,,,,,,,,,,,,,,,,,,,,
,,,,,,,,,,,,,,,,,,,,,,,,,,,,,,,,,,,,,,,,,,,,,
,,,,,,,,,,,,,,,,,,,,,,,,,,,,,,,,,,,,,,,,,,,,,
,,,,,,,,,,,,,,,,,,,,,,,,,,,,,,,,,,,,,,,,,,,,,
,,,,,,,,,,,,,,,,,,,,,,,,,,,,,,,,,,,,,,,,,,,,,
,,,,,,,,,,,,,,,,,,,,,,,,,,,,,,,,,,,,,,,,,,,,,
,,,,,,,,,,,,,,,,,,,,,,,,,,,,,,,,,,,,,,,,,,,,,
,,,,,,,,,,,,,,,,,,,,,,,,,,,,,,,,,,,,,,,,,,,,,
,,,,,,,,,,,,,,,,,,,,,,,,,,,,,,,,,,,,,,,,,,,,,
,,,,,,,,,,,,,,,,,,,,,,,,,,,,,,,,,,,,,,,,,,,,,
,,,,,,,,,,,,,,,,,,,,,,,,,,,,,,,,,,,,,,,,,,,,,
,,,,,,,,,,,,,,,,,,,,,,,,,,,,,,,,,,,,,,,,,,,,,
,,,,,,,,,,,,,,,,,,,,,,,,,,,,,,,,,,,,,,,,,,,,,
,,,,,,,,,,,,,,,,,,,,,,,,,,,,,,,,,,,,,,,,,,,,,
,,,,,,,,,,,,,,,,,,,,,,,,,,,,,,,,,,,,,,,,,,,,,
,,,,,,,,,,,,,,,,,,,,,,,,,,,,,,,,,,,,,,,,,,,,,
,,,,,,,,,,,,,,,,,,,,,,,,,,,,,,,,,,,,,,,,,,,,,
,,,,,,,,,,,,,,,,,,,,,,,,,,,,,,,,,,,,,,,,,,,,,
,,,,,,,,,,,,,,,,,,,,,,,,,,,,,,,,,,,,,,,,,,,,,
,,,,,,,,,,,,,,,,,,,,,,,,,,,,,,,,,,,,,,,,,,,,,
,,,,,,,,,,,,,,,,,,,,,,,,,,,,,,,,,,,,,,,,,,,,,
,,,,,,,,,,,,,,,,,,,,,,,,,,,,,,,,,,,,,,,,,,,,,
,,,,,,,,,,,,,,,,,,,,,,,,,,,,,,,,,,,,,,,,,,,,,
,,,,,,,,,,,,,,,,,,,,,,,,,,,,,,,,,,,,,,,,,,,,,
,,,,,,,,,,,,,,,,,,,,,,,,,,,,,,,,,,,,,,,,,,,,,
,,,,,,,,,,,,,,,,,,,,,,,,,,,,,,,,,,,,,,,,,,,,,
,,,,,,,,,,,,,,,,,,,,,,,,,,,,,,,,,,,,,,,,,,,,,
,,,,,,,,,,,,,,,,,,,,,,,,,,,,,,,,,,,,,,,,,,,,,
,,,,,,,,,,,,,,,,,,,,,,,,,,,,,,,,,,,,,,,,,,,,,
,,,,,,,,,,,,,,,,,,,,,,,,,,,,,,,,,,,,,,,,,,,,,
,,,,,,,,,,,,,,,,,,,,,,,,,,,,,,,,,,,,,,,,,,,,,
,,,,,,,,,,,,,,,,,,,,,,,,,,,,,,,,,,,,,,,,,,,,,
,,,,,,,,,,,,,,,,,,,,,,,,,,,,,,,,,,,,,,,,,,,,,
,,,,,,,,,,,,,,,,,,,,,,,,,,,,,,,,,,,,,,,,,,,,,
,,,,,,,,,,,,,,,,,,,,,,,,,,,,,,,,,,,,,,,,,,,,,
,,,,,,,,,,,,,,,,,,,,,,,,,,,,,,,,,,,,,,,,,,,,,
,,,,,,,,,,,,,,,,,,,,,,,,,,,,,,,,,,,,,,,,,,,,,
,,,,,,,,,,,,,,,,,,,,,,,,,,,,,,,,,,,,,,,,,,,,,
,,,,,,,,,,,,,,,,,,,,,,,,,,,,,,,,,,,,,,,,,,,,,
,,,,,,,,,,,,,,,,,,,,,,,,,,,,,,,,,,,,,,,,,,,,,
,,,,,,,,,,,,,,,,,,,,,,,,,,,,,,,,,,,,,,,,,,,,,
,,,,,,,,,,,,,,,,,,,,,,,,,,,,,,,,,,,,,,,,,,,,,
,,,,,,,,,,,,,,,,,,,,,,,,,,,,,,,,,,,,,,,,,,,,,
,,,,,,,,,,,,,,,,,,,,,,,,,,,,,,,,,,,,,,,,,,,,,
,,,,,,,,,,,,,,,,,,,,,,,,,,,,,,,,,,,,,,,,,,,,,
,,,,,,,,,,,,,,,,,,,,,,,,,,,,,,,,,,,,,,,,,,,,,
,,,,,,,,,,,,,,,,,,,,,,,,,,,,,,,,,,,,,,,,,,,,,
,,,,,,,,,,,,,,,,,,,,,,,,,,,,,,,,,,,,,,,,,,,,,
,,,,,,,,,,,,,,,,,,,,,,,,,,,,,,,,,,,,,,,,,,,,,
,,,,,,,,,,,,,,,,,,,,,,,,,,,,,,,,,,,,,,,,,,,,,
,,,,,,,,,,,,,,,,,,,,,,,,,,,,,,,,,,,,,,,,,,,,,
,,,,,,,,,,,,,,,,,,,,,,,,,,,,,,,,,,,,,,,,,,,,,
,,,,,,,,,,,,,,,,,,,,,,,,,,,,,,,,,,,,,,,,,,,,,
,,,,,,,,,,,,,,,,,,,,,,,,,,,,,,,,,,,,,,,,,,,,,
,,,,,,,,,,,,,,,,,,,,,,,,,,,,,,,,,,,,,,,,,,,,,
,,,,,,,,,,,,,,,,,,,,,,,,,,,,,,,,,,,,,,,,,,,,,
,,,,,,,,,,,,,,,,,,,,,,,,,,,,,,,,,,,,,,,,,,,,,
,,,,,,,,,,,,,,,,,,,,,,,,,,,,,,,,,,,,,,,,,,,,,
,,,,,,,,,,,,,,,,,,,,,,,,,,,,,,,,,,,,,,,,,,,,,
,,,,,,,,,,,,,,,,,,,,,,,,,,,,,,,,,,,,,,,,,,,,,
,,,,,,,,,,,,,,,,,,,,,,,,,,,,,,,,,,,,,,,,,,,,,
,,,,,,,,,,,,,,,,,,,,,,,,,,,,,,,,,,,,,,,,,,,,,
,,,,,,,,,,,,,,,,,,,,,,,,,,,,,,,,,,,,,,,,,,,,,
,,,,,,,,,,,,,,,,,,,,,,,,,,,,,,,,,,,,,,,,,,,,,
,,,,,,,,,,,,,,,,,,,,,,,,,,,,,,,,,,,,,,,,,,,,,
,,,,,,,,,,,,,,,,,,,,,,,,,,,,,,,,,,,,,,,,,,,,,
,,,,,,,,,,,,,,,,,,,,,,,,,,,,,,,,,,,,,,,,,,,,,
,,,,,,,,,,,,,,,,,,,,,,,,,,,,,,,,,,,,,,,,,,,,,
,,,,,,,,,,,,,,,,,,,,,,,,,,,,,,,,,,,,,,,,,,,,,
,,,,,,,,,,,,,,,,,,,,,,,,,,,,,,,,,,,,,,,,,,,,,
,,,,,,,,,,,,,,,,,,,,,,,,,,,,,,,,,,,,,,,,,,,,,
,,,,,,,,,,,,,,,,,,,,,,,,,,,,,,,,,,,,,,,,,,,,,
,,,,,,,,,,,,,,,,,,,,,,,,,,,,,,,,,,,,,,,,,,,,,
,,,,,,,,,,,,,,,,,,,,,,,,,,,,,,,,,,,,,,,,,,,,,
,,,,,,,,,,,,,,,,,,,,,,,,,,,,,,,,,,,,,,,,,,,,,
,,,,,,,,,,,,,,,,,,,,,,,,,,,,,,,,,,,,,,,,,,,,,
,,,,,,,,,,,,,,,,,,,,,,,,,,,,,,,,,,,,,,,,,,,,,
,,,,,,,,,,,,,,,,,,,,,,,,,,,,,,,,,,,,,,,,,,,,,
,,,,,,,,,,,,,,,,,,,,,,,,,,,,,,,,,,,,,,,,,,,,,
,,,,,,,,,,,,,,,,,,,,,,,,,,,,,,,,,,,,,,,,,,,,,
,,,,,,,,,,,,,,,,,,,,,,,,,,,,,,,,,,,,,,,,,,,,,
,,,,,,,,,,,,,,,,,,,,,,,,,,,,,,,,,,,,,,,,,,,,,
,,,,,,,,,,,,,,,,,,,,,,,,,,,,,,,,,,,,,,,,,,,,,
,,,,,,,,,,,,,,,,,,,,,,,,,,,,,,,,,,,,,,,,,,,,,
,,,,,,,,,,,,,,,,,,,,,,,,,,,,,,,,,,,,,,,,,,,,,
,,,,,,,,,,,,,,,,,,,,,,,,,,,,,,,,,,,,,,,,,,,,,
,,,,,,,,,,,,,,,,,,,,,,,,,,,,,,,,,,,,,,,,,,,,,
,,,,,,,,,,,,,,,,,,,,,,,,,,,,,,,,,,,,,,,,,,,,,
,,,,,,,,,,,,,,,,,,,,,,,,,,,,,,,,,,,,,,,,,,,,,
,,,,,,,,,,,,,,,,,,,,,,,,,,,,,,,,,,,,,,,,,,,,,
,,,,,,,,,,,,,,,,,,,,,,,,,,,,,,,,,,,,,,,,,,,,,
,,,,,,,,,,,,,,,,,,,,,,,,,,,,,,,,,,,,,,,,,,,,,
,,,,,,,,,,,,,,,,,,,,,,,,,,,,,,,,,,,,,,,,,,,,,
,,,,,,,,,,,,,,,,,,,,,,,,,,,,,,,,,,,,,,,,,,,,,
,,,,,,,,,,,,,,,,,,,,,,,,,,,,,,,,,,,,,,,,,,,,,
,,,,,,,,,,,,,,,,,,,,,,,,,,,,,,,,,,,,,,,,,,,,,
,,,,,,,,,,,,,,,,,,,,,,,,,,,,,,,,,,,,,,,,,,,,,
,,,,,,,,,,,,,,,,,,,,,,,,,,,,,,,,,,,,,,,,,,,,,
,,,,,,,,,,,,,,,,,,,,,,,,,,,,,,,,,,,,,,,,,,,,,
,,,,,,,,,,,,,,,,,,,,,,,,,,,,,,,,,,,,,,,,,,,,,
,,,,,,,,,,,,,,,,,,,,,,,,,,,,,,,,,,,,,,,,,,,,,
,,,,,,,,,,,,,,,,,,,,,,,,,,,,,,,,,,,,,,,,,,,,,
,,,,,,,,,,,,,,,,,,,,,,,,,,,,,,,,,,,,,,,,,,,,,
,,,,,,,,,,,,,,,,,,,,,,,,,,,,,,,,,,,,,,,,,,,,,
,,,,,,,,,,,,,,,,,,,,,,,,,,,,,,,,,,,,,,,,,,,,,
,,,,,,,,,,,,,,,,,,,,,,,,,,,,,,,,,,,,,,,,,,,,,
,,,,,,,,,,,,,,,,,,,,,,,,,,,,,,,,,,,,,,,,,,,,,
,,,,,,,,,,,,,,,,,,,,,,,,,,,,,,,,,,,,,,,,,,,,,
,,,,,,,,,,,,,,,,,,,,,,,,,,,,,,,,,,,,,,,,,,,,,
,,,,,,,,,,,,,,,,,,,,,,,,,,,,,,,,,,,,,,,,,,,,,
,,,,,,,,,,,,,,,,,,,,,,,,,,,,,,,,,,,,,,,,,,,,,
,,,,,,,,,,,,,,,,,,,,,,,,,,,,,,,,,,,,,,,,,,,,,
,,,,,,,,,,,,,,,,,,,,,,,,,,,,,,,,,,,,,,,,,,,,,
,,,,,,,,,,,,,,,,,,,,,,,,,,,,,,,,,,,,,,,,,,,,,
,,,,,,,,,,,,,,,,,,,,,,,,,,,,,,,,,,,,,,,,,,,,,
,,,,,,,,,,,,,,,,,,,,,,,,,,,,,,,,,,,,,,,,,,,,,
,,,,,,,,,,,,,,,,,,,,,,,,,,,,,,,,,,,,,,,,,,,,,
,,,,,,,,,,,,,,,,,,,,,,,,,,,,,,,,,,,,,,,,,,,,,
,,,,,,,,,,,,,,,,,,,,,,,,,,,,,,,,,,,,,,,,,,,,,
,,,,,,,,,,,,,,,,,,,,,,,,,,,,,,,,,,,,,,,,,,,,,
,,,,,,,,,,,,,,,,,,,,,,,,,,,,,,,,,,,,,,,,,,,,,
,,,,,,,,,,,,,,,,,,,,,,,,,,,,,,,,,,,,,,,,,,,,,
,,,,,,,,,,,,,,,,,,,,,,,,,,,,,,,,,,,,,,,,,,,,,
,,,,,,,,,,,,,,,,,,,,,,,,,,,,,,,,,,,,,,,,,,,,,
,,,,,,,,,,,,,,,,,,,,,,,,,,,,,,,,,,,,,,,,,,,,,
,,,,,,,,,,,,,,,,,,,,,,,,,,,,,,,,,,,,,,,,,,,,,
,,,,,,,,,,,,,,,,,,,,,,,,,,,,,,,,,,,,,,,,,,,,,
,,,,,,,,,,,,,,,,,,,,,,,,,,,,,,,,,,,,,,,,,,,,,
,,,,,,,,,,,,,,,,,,,,,,,,,,,,,,,,,,,,,,,,,,,,,
,,,,,,,,,,,,,,,,,,,,,,,,,,,,,,,,,,,,,,,,,,,,,
,,,,,,,,,,,,,,,,,,,,,,,,,,,,,,,,,,,,,,,,,,,,,
,,,,,,,,,,,,,,,,,,,,,,,,,,,,,,,,,,,,,,,,,,,,,
,,,,,,,,,,,,,,,,,,,,,,,,,,,,,,,,,,,,,,,,,,,,,
,,,,,,,,,,,,,,,,,,,,,,,,,,,,,,,,,,,,,,,,,,,,,
,,,,,,,,,,,,,,,,,,,,,,,,,,,,,,,,,,,,,,,,,,,,,
,,,,,,,,,,,,,,,,,,,,,,,,,,,,,,,,,,,,,,,,,,,,,
,,,,,,,,,,,,,,,,,,,,,,,,,,,,,,,,,,,,,,,,,,,,,
,,,,,,,,,,,,,,,,,,,,,,,,,,,,,,,,,,,,,,,,,,,,,
,,,,,,,,,,,,,,,,,,,,,,,,,,,,,,,,,,,,,,,,,,,,,
,,,,,,,,,,,,,,,,,,,,,,,,,,,,,,,,,,,,,,,,,,,,,
,,,,,,,,,,,,,,,,,,,,,,,,,,,,,,,,,,,,,,,,,,,,,
,,,,,,,,,,,,,,,,,,,,,,,,,,,,,,,,,,,,,,,,,,,,,
,,,,,,,,,,,,,,,,,,,,,,,,,,,,,,,,,,,,,,,,,,,,,
,,,,,,,,,,,,,,,,,,,,,,,,,,,,,,,,,,,,,,,,,,,,,
,,,,,,,,,,,,,,,,,,,,,,,,,,,,,,,,,,,,,,,,,,,,,
,,,,,,,,,,,,,,,,,,,,,,,,,,,,,,,,,,,,,,,,,,,,,
,,,,,,,,,,,,,,,,,,,,,,,,,,,,,,,,,,,,,,,,,,,,,
,,,,,,,,,,,,,,,,,,,,,,,,,,,,,,,,,,,,,,,,,,,,,
,,,,,,,,,,,,,,,,,,,,,,,,,,,,,,,,,,,,,,,,,,,,,
,,,,,,,,,,,,,,,,,,,,,,,,,,,,,,,,,,,,,,,,,,,,,
,,,,,,,,,,,,,,,,,,,,,,,,,,,,,,,,,,,,,,,,,,,,,
,,,,,,,,,,,,,,,,,,,,,,,,,,,,,,,,,,,,,,,,,,,,,
,,,,,,,,,,,,,,,,,,,,,,,,,,,,,,,,,,,,,,,,,,,,,
,,,,,,,,,,,,,,,,,,,,,,,,,,,,,,,,,,,,,,,,,,,,,
,,,,,,,,,,,,,,,,,,,,,,,,,,,,,,,,,,,,,,,,,,,,,
,,,,,,,,,,,,,,,,,,,,,,,,,,,,,,,,,,,,,,,,,,,,,
,,,,,,,,,,,,,,,,,,,,,,,,,,,,,,,,,,,,,,,,,,,,,
,,,,,,,,,,,,,,,,,,,,,,,,,,,,,,,,,,,,,,,,,,,,,
,,,,,,,,,,,,,,,,,,,,,,,,,,,,,,,,,,,,,,,,,,,,,
,,,,,,,,,,,,,,,,,,,,,,,,,,,,,,,,,,,,,,,,,,,,,
,,,,,,,,,,,,,,,,,,,,,,,,,,,,,,,,,,,,,,,,,,,,,
,,,,,,,,,,,,,,,,,,,,,,,,,,,,,,,,,,,,,,,,,,,,,
,,,,,,,,,,,,,,,,,,,,,,,,,,,,,,,,,,,,,,,,,,,,,
,,,,,,,,,,,,,,,,,,,,,,,,,,,,,,,,,,,,,,,,,,,,,
,,,,,,,,,,,,,,,,,,,,,,,,,,,,,,,,,,,,,,,,,,,,,
,,,,,,,,,,,,,,,,,,,,,,,,,,,,,,,,,,,,,,,,,,,,,
,,,,,,,,,,,,,,,,,,,,,,,,,,,,,,,,,,,,,,,,,,,,,
,,,,,,,,,,,,,,,,,,,,,,,,,,,,,,,,,,,,,,,,,,,,,
,,,,,,,,,,,,,,,,,,,,,,,,,,,,,,,,,,,,,,,,,,,,,
,,,,,,,,,,,,,,,,,,,,,,,,,,,,,,,,,,,,,,,,,,,,,
,,,,,,,,,,,,,,,,,,,,,,,,,,,,,,,,,,,,,,,,,,,,,
,,,,,,,,,,,,,,,,,,,,,,,,,,,,,,,,,,,,,,,,,,,,,
,,,,,,,,,,,,,,,,,,,,,,,,,,,,,,,,,,,,,,,,,,,,,
,,,,,,,,,,,,,,,,,,,,,,,,,,,,,,,,,,,,,,,,,,,,,
,,,,,,,,,,,,,,,,,,,,,,,,,,,,,,,,,,,,,,,,,,,,,
,,,,,,,,,,,,,,,,,,,,,,,,,,,,,,,,,,,,,,,,,,,,,
,,,,,,,,,,,,,,,,,,,,,,,,,,,,,,,,,,,,,,,,,,,,,
,,,,,,,,,,,,,,,,,,,,,,,,,,,,,,,,,,,,,,,,,,,,,
,,,,,,,,,,,,,,,,,,,,,,,,,,,,,,,,,,,,,,,,,,,,,
,,,,,,,,,,,,,,,,,,,,,,,,,,,,,,,,,,,,,,,,,,,,,
,,,,,,,,,,,,,,,,,,,,,,,,,,,,,,,,,,,,,,,,,,,,,
,,,,,,,,,,,,,,,,,,,,,,,,,,,,,,,,,,,,,,,,,,,,,
,,,,,,,,,,,,,,,,,,,,,,,,,,,,,,,,,,,,,,,,,,,,,
,,,,,,,,,,,,,,,,,,,,,,,,,,,,,,,,,,,,,,,,,,,,,
,,,,,,,,,,,,,,,,,,,,,,,,,,,,,,,,,,,,,,,,,,,,,
,,,,,,,,,,,,,,,,,,,,,,,,,,,,,,,,,,,,,,,,,,,,,
,,,,,,,,,,,,,,,,,,,,,,,,,,,,,,,,,,,,,,,,,,,,,
,,,,,,,,,,,,,,,,,,,,,,,,,,,,,,,,,,,,,,,,,,,,,
,,,,,,,,,,,,,,,,,,,,,,,,,,,,,,,,,,,,,,,,,,,,,
,,,,,,,,,,,,,,,,,,,,,,,,,,,,,,,,,,,,,,,,,,,,,
,,,,,,,,,,,,,,,,,,,,,,,,,,,,,,,,,,,,,,,,,,,,,
,,,,,,,,,,,,,,,,,,,,,,,,,,,,,,,,,,,,,,,,,,,,,
,,,,,,,,,,,,,,,,,,,,,,,,,,,,,,,,,,,,,,,,,,,,,
,,,,,,,,,,,,,,,,,,,,,,,,,,,,,,,,,,,,,,,,,,,,,
,,,,,,,,,,,,,,,,,,,,,,,,,,,,,,,,,,,,,,,,,,,,,
,,,,,,,,,,,,,,,,,,,,,,,,,,,,,,,,,,,,,,,,,,,,,
,,,,,,,,,,,,,,,,,,,,,,,,,,,,,,,,,,,,,,,,,,,,,
,,,,,,,,,,,,,,,,,,,,,,,,,,,,,,,,,,,,,,,,,,,,,
,,,,,,,,,,,,,,,,,,,,,,,,,,,,,,,,,,,,,,,,,,,,,
,,,,,,,,,,,,,,,,,,,,,,,,,,,,,,,,,,,,,,,,,,,,,
,,,,,,,,,,,,,,,,,,,,,,,,,,,,,,,,,,,,,,,,,,,,,
,,,,,,,,,,,,,,,,,,,,,,,,,,,,,,,,,,,,,,,,,,,,,
,,,,,,,,,,,,,,,,,,,,,,,,,,,,,,,,,,,,,,,,,,,,,
,,,,,,,,,,,,,,,,,,,,,,,,,,,,,,,,,,,,,,,,,,,,,
,,,,,,,,,,,,,,,,,,,,,,,,,,,,,,,,,,,,,,,,,,,,,
,,,,,,,,,,,,,,,,,,,,,,,,,,,,,,,,,,,,,,,,,,,,,
,,,,,,,,,,,,,,,,,,,,,,,,,,,,,,,,,,,,,,,,,,,,,
,,,,,,,,,,,,,,,,,,,,,,,,,,,,,,,,,,,,,,,,,,,,,
,,,,,,,,,,,,,,,,,,,,,,,,,,,,,,,,,,,,,,,,,,,,,
,,,,,,,,,,,,,,,,,,,,,,,,,,,,,,,,,,,,,,,,,,,,,
,,,,,,,,,,,,,,,,,,,,,,,,,,,,,,,,,,,,,,,,,,,,,
,,,,,,,,,,,,,,,,,,,,,,,,,,,,,,,,,,,,,,,,,,,,,
,,,,,,,,,,,,,,,,,,,,,,,,,,,,,,,,,,,,,,,,,,,,,
,,,,,,,,,,,,,,,,,,,,,,,,,,,,,,,,,,,,,,,,,,,,,
,,,,,,,,,,,,,,,,,,,,,,,,,,,,,,,,,,,,,,,,,,,,,
,,,,,,,,,,,,,,,,,,,,,,,,,,,,,,,,,,,,,,,,,,,,,
,,,,,,,,,,,,,,,,,,,,,,,,,,,,,,,,,,,,,,,,,,,,,
,,,,,,,,,,,,,,,,,,,,,,,,,,,,,,,,,,,,,,,,,,,,,
,,,,,,,,,,,,,,,,,,,,,,,,,,,,,,,,,,,,,,,,,,,,,
,,,,,,,,,,,,,,,,,,,,,,,,,,,,,,,,,,,,,,,,,,,,,
,,,,,,,,,,,,,,,,,,,,,,,,,,,,,,,,,,,,,,,,,,,,,
,,,,,,,,,,,,,,,,,,,,,,,,,,,,,,,,,,,,,,,,,,,,,
,,,,,,,,,,,,,,,,,,,,,,,,,,,,,,,,,,,,,,,,,,,,,
,,,,,,,,,,,,,,,,,,,,,,,,,,,,,,,,,,,,,,,,,,,,,
,,,,,,,,,,,,,,,,,,,,,,,,,,,,,,,,,,,,,,,,,,,,,
,,,,,,,,,,,,,,,,,,,,,,,,,,,,,,,,,,,,,,,,,,,,,
,,,,,,,,,,,,,,,,,,,,,,,,,,,,,,,,,,,,,,,,,,,,,
,,,,,,,,,,,,,,,,,,,,,,,,,,,,,,,,,,,,,,,,,,,,,
,,,,,,,,,,,,,,,,,,,,,,,,,,,,,,,,,,,,,,,,,,,,,
,,,,,,,,,,,,,,,,,,,,,,,,,,,,,,,,,,,,,,,,,,,,,
,,,,,,,,,,,,,,,,,,,,,,,,,,,,,,,,,,,,,,,,,,,,,
,,,,,,,,,,,,,,,,,,,,,,,,,,,,,,,,,,,,,,,,,,,,,
,,,,,,,,,,,,,,,,,,,,,,,,,,,,,,,,,,,,,,,,,,,,,
,,,,,,,,,,,,,,,,,,,,,,,,,,,,,,,,,,,,,,,,,,,,,
,,,,,,,,,,,,,,,,,,,,,,,,,,,,,,,,,,,,,,,,,,,,,
,,,,,,,,,,,,,,,,,,,,,,,,,,,,,,,,,,,,,,,,,,,,,
,,,,,,,,,,,,,,,,,,,,,,,,,,,,,,,,,,,,,,,,,,,,,
,,,,,,,,,,,,,,,,,,,,,,,,,,,,,,,,,,,,,,,,,,,,,
,,,,,,,,,,,,,,,,,,,,,,,,,,,,,,,,,,,,,,,,,,,,,
,,,,,,,,,,,,,,,,,,,,,,,,,,,,,,,,,,,,,,,,,,,,,
,,,,,,,,,,,,,,,,,,,,,,,,,,,,,,,,,,,,,,,,,,,,,
,,,,,,,,,,,,,,,,,,,,,,,,,,,,,,,,,,,,,,,,,,,,,
,,,,,,,,,,,,,,,,,,,,,,,,,,,,,,,,,,,,,,,,,,,,,
,,,,,,,,,,,,,,,,,,,,,,,,,,,,,,,,,,,,,,,,,,,,,
,,,,,,,,,,,,,,,,,,,,,,,,,,,,,,,,,,,,,,,,,,,,,
,,,,,,,,,,,,,,,,,,,,,,,,,,,,,,,,,,,,,,,,,,,,,
,,,,,,,,,,,,,,,,,,,,,,,,,,,,,,,,,,,,,,,,,,,,,
,,,,,,,,,,,,,,,,,,,,,,,,,,,,,,,,,,,,,,,,,,,,,
,,,,,,,,,,,,,,,,,,,,,,,,,,,,,,,,,,,,,,,,,,,,,
,,,,,,,,,,,,,,,,,,,,,,,,,,,,,,,,,,,,,,,,,,,,,
,,,,,,,,,,,,,,,,,,,,,,,,,,,,,,,,,,,,,,,,,,,,,
,,,,,,,,,,,,,,,,,,,,,,,,,,,,,,,,,,,,,,,,,,,,,
,,,,,,,,,,,,,,,,,,,,,,,,,,,,,,,,,,,,,,,,,,,,,
,,,,,,,,,,,,,,,,,,,,,,,,,,,,,,,,,,,,,,,,,,,,,
,,,,,,,,,,,,,,,,,,,,,,,,,,,,,,,,,,,,,,,,,,,,,
,,,,,,,,,,,,,,,,,,,,,,,,,,,,,,,,,,,,,,,,,,,,,
,,,,,,,,,,,,,,,,,,,,,,,,,,,,,,,,,,,,,,,,,,,,,
,,,,,,,,,,,,,,,,,,,,,,,,,,,,,,,,,,,,,,,,,,,,,
,,,,,,,,,,,,,,,,,,,,,,,,,,,,,,,,,,,,,,,,,,,,,
,,,,,,,,,,,,,,,,,,,,,,,,,,,,,,,,,,,,,,,,,,,,,
,,,,,,,,,,,,,,,,,,,,,,,,,,,,,,,,,,,,,,,,,,,,,
,,,,,,,,,,,,,,,,,,,,,,,,,,,,,,,,,,,,,,,,,,,,,
,,,,,,,,,,,,,,,,,,,,,,,,,,,,,,,,,,,,,,,,,,,,,
,,,,,,,,,,,,,,,,,,,,,,,,,,,,,,,,,,,,,,,,,,,,,
,,,,,,,,,,,,,,,,,,,,,,,,,,,,,,,,,,,,,,,,,,,,,
,,,,,,,,,,,,,,,,,,,,,,,,,,,,,,,,,,,,,,,,,,,,,
,,,,,,,,,,,,,,,,,,,,,,,,,,,,,,,,,,,,,,,,,,,,,
,,,,,,,,,,,,,,,,,,,,,,,,,,,,,,,,,,,,,,,,,,,,,
,,,,,,,,,,,,,,,,,,,,,,,,,,,,,,,,,,,,,,,,,,,,,
,,,,,,,,,,,,,,,,,,,,,,,,,,,,,,,,,,,,,,,,,,,,,
,,,,,,,,,,,,,,,,,,,,,,,,,,,,,,,,,,,,,,,,,,,,,
,,,,,,,,,,,,,,,,,,,,,,,,,,,,,,,,,,,,,,,,,,,,,
,,,,,,,,,,,,,,,,,,,,,,,,,,,,,,,,,,,,,,,,,,,,,
,,,,,,,,,,,,,,,,,,,,,,,,,,,,,,,,,,,,,,,,,,,,,
,,,,,,,,,,,,,,,,,,,,,,,,,,,,,,,,,,,,,,,,,,,,,
,,,,,,,,,,,,,,,,,,,,,,,,,,,,,,,,,,,,,,,,,,,,,
,,,,,,,,,,,,,,,,,,,,,,,,,,,,,,,,,,,,,,,,,,,,,
,,,,,,,,,,,,,,,,,,,,,,,,,,,,,,,,,,,,,,,,,,,,,
,,,,,,,,,,,,,,,,,,,,,,,,,,,,,,,,,,,,,,,,,,,,,
,,,,,,,,,,,,,,,,,,,,,,,,,,,,,,,,,,,,,,,,,,,,,
,,,,,,,,,,,,,,,,,,,,,,,,,,,,,,,,,,,,,,,,,,,,,
,,,,,,,,,,,,,,,,,,,,,,,,,,,,,,,,,,,,,,,,,,,,,
,,,,,,,,,,,,,,,,,,,,,,,,,,,,,,,,,,,,,,,,,,,,,
,,,,,,,,,,,,,,,,,,,,,,,,,,,,,,,,,,,,,,,,,,,,,
,,,,,,,,,,,,,,,,,,,,,,,,,,,,,,,,,,,,,,,,,,,,,
,,,,,,,,,,,,,,,,,,,,,,,,,,,,,,,,,,,,,,,,,,,,,
,,,,,,,,,,,,,,,,,,,,,,,,,,,,,,,,,,,,,,,,,,,,,
,,,,,,,,,,,,,,,,,,,,,,,,,,,,,,,,,,,,,,,,,,,,,
,,,,,,,,,,,,,,,,,,,,,,,,,,,,,,,,,,,,,,,,,,,,,
,,,,,,,,,,,,,,,,,,,,,,,,,,,,,,,,,,,,,,,,,,,,,
,,,,,,,,,,,,,,,,,,,,,,,,,,,,,,,,,,,,,,,,,,,,,
,,,,,,,,,,,,,,,,,,,,,,,,,,,,,,,,,,,,,,,,,,,,,
,,,,,,,,,,,,,,,,,,,,,,,,,,,,,,,,,,,,,,,,,,,,,
,,,,,,,,,,,,,,,,,,,,,,,,,,,,,,,,,,,,,,,,,,,,,
,,,,,,,,,,,,,,,,,,,,,,,,,,,,,,,,,,,,,,,,,,,,,
,,,,,,,,,,,,,,,,,,,,,,,,,,,,,,,,,,,,,,,,,,,,,
,,,,,,,,,,,,,,,,,,,,,,,,,,,,,,,,,,,,,,,,,,,,,
,,,,,,,,,,,,,,,,,,,,,,,,,,,,,,,,,,,,,,,,,,,,,
,,,,,,,,,,,,,,,,,,,,,,,,,,,,,,,,,,,,,,,,,,,,,
,,,,,,,,,,,,,,,,,,,,,,,,,,,,,,,,,,,,,,,,,,,,,
,,,,,,,,,,,,,,,,,,,,,,,,,,,,,,,,,,,,,,,,,,,,,
,,,,,,,,,,,,,,,,,,,,,,,,,,,,,,,,,,,,,,,,,,,,,
,,,,,,,,,,,,,,,,,,,,,,,,,,,,,,,,,,,,,,,,,,,,,
,,,,,,,,,,,,,,,,,,,,,,,,,,,,,,,,,,,,,,,,,,,,,
,,,,,,,,,,,,,,,,,,,,,,,,,,,,,,,,,,,,,,,,,,,,,
,,,,,,,,,,,,,,,,,,,,,,,,,,,,,,,,,,,,,,,,,,,,,
,,,,,,,,,,,,,,,,,,,,,,,,,,,,,,,,,,,,,,,,,,,,,
,,,,,,,,,,,,,,,,,,,,,,,,,,,,,,,,,,,,,,,,,,,,,
,,,,,,,,,,,,,,,,,,,,,,,,,,,,,,,,,,,,,,,,,,,,,
,,,,,,,,,,,,,,,,,,,,,,,,,,,,,,,,,,,,,,,,,,,,,
,,,,,,,,,,,,,,,,,,,,,,,,,,,,,,,,,,,,,,,,,,,,,
,,,,,,,,,,,,,,,,,,,,,,,,,,,,,,,,,,,,,,,,,,,,,
,,,,,,,,,,,,,,,,,,,,,,,,,,,,,,,,,,,,,,,,,,,,,
,,,,,,,,,,,,,,,,,,,,,,,,,,,,,,,,,,,,,,,,,,,,,
,,,,,,,,,,,,,,,,,,,,,,,,,,,,,,,,,,,,,,,,,,,,,
,,,,,,,,,,,,,,,,,,,,,,,,,,,,,,,,,,,,,,,,,,,,,
,,,,,,,,,,,,,,,,,,,,,,,,,,,,,,,,,,,,,,,,,,,,,
,,,,,,,,,,,,,,,,,,,,,,,,,,,,,,,,,,,,,,,,,,,,,
,,,,,,,,,,,,,,,,,,,,,,,,,,,,,,,,,,,,,,,,,,,,,
,,,,,,,,,,,,,,,,,,,,,,,,,,,,,,,,,,,,,,,,,,,,,
,,,,,,,,,,,,,,,,,,,,,,,,,,,,,,,,,,,,,,,,,,,,,
,,,,,,,,,,,,,,,,,,,,,,,,,,,,,,,,,,,,,,,,,,,,,
,,,,,,,,,,,,,,,,,,,,,,,,,,,,,,,,,,,,,,,,,,,,,
,,,,,,,,,,,,,,,,,,,,,,,,,,,,,,,,,,,,,,,,,,,,,
,,,,,,,,,,,,,,,,,,,,,,,,,,,,,,,,,,,,,,,,,,,,,
,,,,,,,,,,,,,,,,,,,,,,,,,,,,,,,,,,,,,,,,,,,,,
,,,,,,,,,,,,,,,,,,,,,,,,,,,,,,,,,,,,,,,,,,,,,
,,,,,,,,,,,,,,,,,,,,,,,,,,,,,,,,,,,,,,,,,,,,,
,,,,,,,,,,,,,,,,,,,,,,,,,,,,,,,,,,,,,,,,,,,,,
,,,,,,,,,,,,,,,,,,,,,,,,,,,,,,,,,,,,,,,,,,,,,
,,,,,,,,,,,,,,,,,,,,,,,,,,,,,,,,,,,,,,,,,,,,,
,,,,,,,,,,,,,,,,,,,,,,,,,,,,,,,,,,,,,,,,,,,,,
,,,,,,,,,,,,,,,,,,,,,,,,,,,,,,,,,,,,,,,,,,,,,
,,,,,,,,,,,,,,,,,,,,,,,,,,,,,,,,,,,,,,,,,,,,,
,,,,,,,,,,,,,,,,,,,,,,,,,,,,,,,,,,,,,,,,,,,,,
,,,,,,,,,,,,,,,,,,,,,,,,,,,,,,,,,,,,,,,,,,,,,
,,,,,,,,,,,,,,,,,,,,,,,,,,,,,,,,,,,,,,,,,,,,,
,,,,,,,,,,,,,,,,,,,,,,,,,,,,,,,,,,,,,,,,,,,,,
,,,,,,,,,,,,,,,,,,,,,,,,,,,,,,,,,,,,,,,,,,,,,
,,,,,,,,,,,,,,,,,,,,,,,,,,,,,,,,,,,,,,,,,,,,,
,,,,,,,,,,,,,,,,,,,,,,,,,,,,,,,,,,,,,,,,,,,,,
,,,,,,,,,,,,,,,,,,,,,,,,,,,,,,,,,,,,,,,,,,,,,
,,,,,,,,,,,,,,,,,,,,,,,,,,,,,,,,,,,,,,,,,,,,,
,,,,,,,,,,,,,,,,,,,,,,,,,,,,,,,,,,,,,,,,,,,,,
,,,,,,,,,,,,,,,,,,,,,,,,,,,,,,,,,,,,,,,,,,,,,
,,,,,,,,,,,,,,,,,,,,,,,,,,,,,,,,,,,,,,,,,,,,,
,,,,,,,,,,,,,,,,,,,,,,,,,,,,,,,,,,,,,,,,,,,,,
,,,,,,,,,,,,,,,,,,,,,,,,,,,,,,,,,,,,,,,,,,,,,
,,,,,,,,,,,,,,,,,,,,,,,,,,,,,,,,,,,,,,,,,,,,,
,,,,,,,,,,,,,,,,,,,,,,,,,,,,,,,,,,,,,,,,,,,,,
,,,,,,,,,,,,,,,,,,,,,,,,,,,,,,,,,,,,,,,,,,,,,
,,,,,,,,,,,,,,,,,,,,,,,,,,,,,,,,,,,,,,,,,,,,,
,,,,,,,,,,,,,,,,,,,,,,,,,,,,,,,,,,,,,,,,,,,,,
,,,,,,,,,,,,,,,,,,,,,,,,,,,,,,,,,,,,,,,,,,,,,
,,,,,,,,,,,,,,,,,,,,,,,,,,,,,,,,,,,,,,,,,,,,,
,,,,,,,,,,,,,,,,,,,,,,,,,,,,,,,,,,,,,,,,,,,,,
,,,,,,,,,,,,,,,,,,,,,,,,,,,,,,,,,,,,,,,,,,,,,
,,,,,,,,,,,,,,,,,,,,,,,,,,,,,,,,,,,,,,,,,,,,,
,,,,,,,,,,,,,,,,,,,,,,,,,,,,,,,,,,,,,,,,,,,,,
,,,,,,,,,,,,,,,,,,,,,,,,,,,,,,,,,,,,,,,,,,,,,
,,,,,,,,,,,,,,,,,,,,,,,,,,,,,,,,,,,,,,,,,,,,,
,,,,,,,,,,,,,,,,,,,,,,,,,,,,,,,,,,,,,,,,,,,,,
,,,,,,,,,,,,,,,,,,,,,,,,,,,,,,,,,,,,,,,,,,,,,
,,,,,,,,,,,,,,,,,,,,,,,,,,,,,,,,,,,,,,,,,,,,,
,,,,,,,,,,,,,,,,,,,,,,,,,,,,,,,,,,,,,,,,,,,,,
,,,,,,,,,,,,,,,,,,,,,,,,,,,,,,,,,,,,,,,,,,,,,
,,,,,,,,,,,,,,,,,,,,,,,,,,,,,,,,,,,,,,,,,,,,,
,,,,,,,,,,,,,,,,,,,,,,,,,,,,,,,,,,,,,,,,,,,,,
,,,,,,,,,,,,,,,,,,,,,,,,,,,,,,,,,,,,,,,,,,,,,
,,,,,,,,,,,,,,,,,,,,,,,,,,,,,,,,,,,,,,,,,,,,,
,,,,,,,,,,,,,,,,,,,,,,,,,,,,,,,,,,,,,,,,,,,,,
,,,,,,,,,,,,,,,,,,,,,,,,,,,,,,,,,,,,,,,,,,,,,
,,,,,,,,,,,,,,,,,,,,,,,,,,,,,,,,,,,,,,,,,,,,,
,,,,,,,,,,,,,,,,,,,,,,,,,,,,,,,,,,,,,,,,,,,,,
,,,,,,,,,,,,,,,,,,,,,,,,,,,,,,,,,,,,,,,,,,,,,
,,,,,,,,,,,,,,,,,,,,,,,,,,,,,,,,,,,,,,,,,,,,,
,,,,,,,,,,,,,,,,,,,,,,,,,,,,,,,,,,,,,,,,,,,,,
,,,,,,,,,,,,,,,,,,,,,,,,,,,,,,,,,,,,,,,,,,,,,
,,,,,,,,,,,,,,,,,,,,,,,,,,,,,,,,,,,,,,,,,,,,,
,,,,,,,,,,,,,,,,,,,,,,,,,,,,,,,,,,,,,,,,,,,,,
,,,,,,,,,,,,,,,,,,,,,,,,,,,,,,,,,,,,,,,,,,,,,
,,,,,,,,,,,,,,,,,,,,,,,,,,,,,,,,,,,,,,,,,,,,,
,,,,,,,,,,,,,,,,,,,,,,,,,,,,,,,,,,,,,,,,,,,,,
,,,,,,,,,,,,,,,,,,,,,,,,,,,,,,,,,,,,,,,,,,,,,
,,,,,,,,,,,,,,,,,,,,,,,,,,,,,,,,,,,,,,,,,,,,,
,,,,,,,,,,,,,,,,,,,,,,,,,,,,,,,,,,,,,,,,,,,,,
,,,,,,,,,,,,,,,,,,,,,,,,,,,,,,,,,,,,,,,,,,,,,
,,,,,,,,,,,,,,,,,,,,,,,,,,,,,,,,,,,,,,,,,,,,,
,,,,,,,,,,,,,,,,,,,,,,,,,,,,,,,,,,,,,,,,,,,,,
,,,,,,,,,,,,,,,,,,,,,,,,,,,,,,,,,,,,,,,,,,,,,
,,,,,,,,,,,,,,,,,,,,,,,,,,,,,,,,,,,,,,,,,,,,,
,,,,,,,,,,,,,,,,,,,,,,,,,,,,,,,,,,,,,,,,,,,,,
,,,,,,,,,,,,,,,,,,,,,,,,,,,,,,,,,,,,,,,,,,,,,
,,,,,,,,,,,,,,,,,,,,,,,,,,,,,,,,,,,,,,,,,,,,,
,,,,,,,,,,,,,,,,,,,,,,,,,,,,,,,,,,,,,,,,,,,,,
,,,,,,,,,,,,,,,,,,,,,,,,,,,,,,,,,,,,,,,,,,,,,
,,,,,,,,,,,,,,,,,,,,,,,,,,,,,,,,,,,,,,,,,,,,,
,,,,,,,,,,,,,,,,,,,,,,,,,,,,,,,,,,,,,,,,,,,,,
,,,,,,,,,,,,,,,,,,,,,,,,,,,,,,,,,,,,,,,,,,,,,
,,,,,,,,,,,,,,,,,,,,,,,,,,,,,,,,,,,,,,,,,,,,,
,,,,,,,,,,,,,,,,,,,,,,,,,,,,,,,,,,,,,,,,,,,,,
,,,,,,,,,,,,,,,,,,,,,,,,,,,,,,,,,,,,,,,,,,,,,
,,,,,,,,,,,,,,,,,,,,,,,,,,,,,,,,,,,,,,,,,,,,,
,,,,,,,,,,,,,,,,,,,,,,,,,,,,,,,,,,,,,,,,,,,,,
,,,,,,,,,,,,,,,,,,,,,,,,,,,,,,,,,,,,,,,,,,,,,
,,,,,,,,,,,,,,,,,,,,,,,,,,,,,,,,,,,,,,,,,,,,,
,,,,,,,,,,,,,,,,,,,,,,,,,,,,,,,,,,,,,,,,,,,,,
,,,,,,,,,,,,,,,,,,,,,,,,,,,,,,,,,,,,,,,,,,,,,
,,,,,,,,,,,,,,,,,,,,,,,,,,,,,,,,,,,,,,,,,,,,,
,,,,,,,,,,,,,,,,,,,,,,,,,,,,,,,,,,,,,,,,,,,,,
,,,,,,,,,,,,,,,,,,,,,,,,,,,,,,,,,,,,,,,,,,,,,
,,,,,,,,,,,,,,,,,,,,,,,,,,,,,,,,,,,,,,,,,,,,,
,,,,,,,,,,,,,,,,,,,,,,,,,,,,,,,,,,,,,,,,,,,,,
,,,,,,,,,,,,,,,,,,,,,,,,,,,,,,,,,,,,,,,,,,,,,
,,,,,,,,,,,,,,,,,,,,,,,,,,,,,,,,,,,,,,,,,,,,,
,,,,,,,,,,,,,,,,,,,,,,,,,,,,,,,,,,,,,,,,,,,,,
,,,,,,,,,,,,,,,,,,,,,,,,,,,,,,,,,,,,,,,,,,,,,
,,,,,,,,,,,,,,,,,,,,,,,,,,,,,,,,,,,,,,,,,,,,,
,,,,,,,,,,,,,,,,,,,,,,,,,,,,,,,,,,,,,,,,,,,,,
,,,,,,,,,,,,,,,,,,,,,,,,,,,,,,,,,,,,,,,,,,,,,
,,,,,,,,,,,,,,,,,,,,,,,,,,,,,,,,,,,,,,,,,,,,,
,,,,,,,,,,,,,,,,,,,,,,,,,,,,,,,,,,,,,,,,,,,,,
,,,,,,,,,,,,,,,,,,,,,,,,,,,,,,,,,,,,,,,,,,,,,
,,,,,,,,,,,,,,,,,,,,,,,,,,,,,,,,,,,,,,,,,,,,,
,,,,,,,,,,,,,,,,,,,,,,,,,,,,,,,,,,,,,,,,,,,,,
,,,,,,,,,,,,,,,,,,,,,,,,,,,,,,,,,,,,,,,,,,,,,
,,,,,,,,,,,,,,,,,,,,,,,,,,,,,,,,,,,,,,,,,,,,,
,,,,,,,,,,,,,,,,,,,,,,,,,,,,,,,,,,,,,,,,,,,,,
,,,,,,,,,,,,,,,,,,,,,,,,,,,,,,,,,,,,,,,,,,,,,
,,,,,,,,,,,,,,,,,,,,,,,,,,,,,,,,,,,,,,,,,,,,,
,,,,,,,,,,,,,,,,,,,,,,,,,,,,,,,,,,,,,,,,,,,,,
,,,,,,,,,,,,,,,,,,,,,,,,,,,,,,,,,,,,,,,,,,,,,
,,,,,,,,,,,,,,,,,,,,,,,,,,,,,,,,,,,,,,,,,,,,,
,,,,,,,,,,,,,,,,,,,,,,,,,,,,,,,,,,,,,,,,,,,,,
,,,,,,,,,,,,,,,,,,,,,,,,,,,,,,,,,,,,,,,,,,,,,
,,,,,,,,,,,,,,,,,,,,,,,,,,,,,,,,,,,,,,,,,,,,,
,,,,,,,,,,,,,,,,,,,,,,,,,,,,,,,,,,,,,,,,,,,,,
,,,,,,,,,,,,,,,,,,,,,,,,,,,,,,,,,,,,,,,,,,,,,
,,,,,,,,,,,,,,,,,,,,,,,,,,,,,,,,,,,,,,,,,,,,,
,,,,,,,,,,,,,,,,,,,,,,,,,,,,,,,,,,,,,,,,,,,,,
,,,,,,,,,,,,,,,,,,,,,,,,,,,,,,,,,,,,,,,,,,,,,
,,,,,,,,,,,,,,,,,,,,,,,,,,,,,,,,,,,,,,,,,,,,,
,,,,,,,,,,,,,,,,,,,,,,,,,,,,,,,,,,,,,,,,,,,,,
,,,,,,,,,,,,,,,,,,,,,,,,,,,,,,,,,,,,,,,,,,,,,
,,,,,,,,,,,,,,,,,,,,,,,,,,,,,,,,,,,,,,,,,,,,,
,,,,,,,,,,,,,,,,,,,,,,,,,,,,,,,,,,,,,,,,,,,,,
,,,,,,,,,,,,,,,,,,,,,,,,,,,,,,,,,,,,,,,,,,,,,
,,,,,,,,,,,,,,,,,,,,,,,,,,,,,,,,,,,,,,,,,,,,,
,,,,,,,,,,,,,,,,,,,,,,,,,,,,,,,,,,,,,,,,,,,,,
,,,,,,,,,,,,,,,,,,,,,,,,,,,,,,,,,,,,,,,,,,,,,
,,,,,,,,,,,,,,,,,,,,,,,,,,,,,,,,,,,,,,,,,,,,,
,,,,,,,,,,,,,,,,,,,,,,,,,,,,,,,,,,,,,,,,,,,,,
,,,,,,,,,,,,,,,,,,,,,,,,,,,,,,,,,,,,,,,,,,,,,
,,,,,,,,,,,,,,,,,,,,,,,,,,,,,,,,,,,,,,,,,,,,,
,,,,,,,,,,,,,,,,,,,,,,,,,,,,,,,,,,,,,,,,,,,,,
,,,,,,,,,,,,,,,,,,,,,,,,,,,,,,,,,,,,,,,,,,,,,
,,,,,,,,,,,,,,,,,,,,,,,,,,,,,,,,,,,,,,,,,,,,,
,,,,,,,,,,,,,,,,,,,,,,,,,,,,,,,,,,,,,,,,,,,,,
,,,,,,,,,,,,,,,,,,,,,,,,,,,,,,,,,,,,,,,,,,,,,
,,,,,,,,,,,,,,,,,,,,,,,,,,,,,,,,,,,,,,,,,,,,,
,,,,,,,,,,,,,,,,,,,,,,,,,,,,,,,,,,,,,,,,,,,,,
,,,,,,,,,,,,,,,,,,,,,,,,,,,,,,,,,,,,,,,,,,,,,
,,,,,,,,,,,,,,,,,,,,,,,,,,,,,,,,,,,,,,,,,,,,,
,,,,,,,,,,,,,,,,,,,,,,,,,,,,,,,,,,,,,,,,,,,,,
,,,,,,,,,,,,,,,,,,,,,,,,,,,,,,,,,,,,,,,,,,,,,
,,,,,,,,,,,,,,,,,,,,,,,,,,,,,,,,,,,,,,,,,,,,,
,,,,,,,,,,,,,,,,,,,,,,,,,,,,,,,,,,,,,,,,,,,,,
,,,,,,,,,,,,,,,,,,,,,,,,,,,,,,,,,,,,,,,,,,,,,
,,,,,,,,,,,,,,,,,,,,,,,,,,,,,,,,,,,,,,,,,,,,,
,,,,,,,,,,,,,,,,,,,,,,,,,,,,,,,,,,,,,,,,,,,,,
,,,,,,,,,,,,,,,,,,,,,,,,,,,,,,,,,,,,,,,,,,,,,
,,,,,,,,,,,,,,,,,,,,,,,,,,,,,,,,,,,,,,,,,,,,,
,,,,,,,,,,,,,,,,,,,,,,,,,,,,,,,,,,,,,,,,,,,,,
,,,,,,,,,,,,,,,,,,,,,,,,,,,,,,,,,,,,,,,,,,,,,
,,,,,,,,,,,,,,,,,,,,,,,,,,,,,,,,,,,,,,,,,,,,,
,,,,,,,,,,,,,,,,,,,,,,,,,,,,,,,,,,,,,,,,,,,,,
,,,,,,,,,,,,,,,,,,,,,,,,,,,,,,,,,,,,,,,,,,,,,
,,,,,,,,,,,,,,,,,,,,,,,,,,,,,,,,,,,,,,,,,,,,,
,,,,,,,,,,,,,,,,,,,,,,,,,,,,,,,,,,,,,,,,,,,,,
,,,,,,,,,,,,,,,,,,,,,,,,,,,,,,,,,,,,,,,,,,,,,
,,,,,,,,,,,,,,,,,,,,,,,,,,,,,,,,,,,,,,,,,,,,,
,,,,,,,,,,,,,,,,,,,,,,,,,,,,,,,,,,,,,,,,,,,,,
,,,,,,,,,,,,,,,,,,,,,,,,,,,,,,,,,,,,,,,,,,,,,
,,,,,,,,,,,,,,,,,,,,,,,,,,,,,,,,,,,,,,,,,,,,,
,,,,,,,,,,,,,,,,,,,,,,,,,,,,,,,,,,,,,,,,,,,,,
,,,,,,,,,,,,,,,,,,,,,,,,,,,,,,,,,,,,,,,,,,,,,
,,,,,,,,,,,,,,,,,,,,,,,,,,,,,,,,,,,,,,,,,,,,,
,,,,,,,,,,,,,,,,,,,,,,,,,,,,,,,,,,,,,,,,,,,,,
,,,,,,,,,,,,,,,,,,,,,,,,,,,,,,,,,,,,,,,,,,,,,
,,,,,,,,,,,,,,,,,,,,,,,,,,,,,,,,,,,,,,,,,,,,,
,,,,,,,,,,,,,,,,,,,,,,,,,,,,,,,,,,,,,,,,,,,,,
,,,,,,,,,,,,,,,,,,,,,,,,,,,,,,,,,,,,,,,,,,,,,
,,,,,,,,,,,,,,,,,,,,,,,,,,,,,,,,,,,,,,,,,,,,,
,,,,,,,,,,,,,,,,,,,,,,,,,,,,,,,,,,,,,,,,,,,,,
,,,,,,,,,,,,,,,,,,,,,,,,,,,,,,,,,,,,,,,,,,,,,
,,,,,,,,,,,,,,,,,,,,,,,,,,,,,,,,,,,,,,,,,,,,,
,,,,,,,,,,,,,,,,,,,,,,,,,,,,,,,,,,,,,,,,,,,,,
,,,,,,,,,,,,,,,,,,,,,,,,,,,,,,,,,,,,,,,,,,,,,
,,,,,,,,,,,,,,,,,,,,,,,,,,,,,,,,,,,,,,,,,,,,,
,,,,,,,,,,,,,,,,,,,,,,,,,,,,,,,,,,,,,,,,,,,,,
,,,,,,,,,,,,,,,,,,,,,,,,,,,,,,,,,,,,,,,,,,,,,
,,,,,,,,,,,,,,,,,,,,,,,,,,,,,,,,,,,,,,,,,,,,,
,,,,,,,,,,,,,,,,,,,,,,,,,,,,,,,,,,,,,,,,,,,,,
,,,,,,,,,,,,,,,,,,,,,,,,,,,,,,,,,,,,,,,,,,,,,
,,,,,,,,,,,,,,,,,,,,,,,,,,,,,,,,,,,,,,,,,,,,,
,,,,,,,,,,,,,,,,,,,,,,,,,,,,,,,,,,,,,,,,,,,,,
,,,,,,,,,,,,,,,,,,,,,,,,,,,,,,,,,,,,,,,,,,,,,
,,,,,,,,,,,,,,,,,,,,,,,,,,,,,,,,,,,,,,,,,,,,,
,,,,,,,,,,,,,,,,,,,,,,,,,,,,,,,,,,,,,,,,,,,,,
,,,,,,,,,,,,,,,,,,,,,,,,,,,,,,,,,,,,,,,,,,,,,
,,,,,,,,,,,,,,,,,,,,,,,,,,,,,,,,,,,,,,,,,,,,,
,,,,,,,,,,,,,,,,,,,,,,,,,,,,,,,,,,,,,,,,,,,,,
,,,,,,,,,,,,,,,,,,,,,,,,,,,,,,,,,,,,,,,,,,,,,
,,,,,,,,,,,,,,,,,,,,,,,,,,,,,,,,,,,,,,,,,,,,,
,,,,,,,,,,,,,,,,,,,,,,,,,,,,,,,,,,,,,,,,,,,,,
,,,,,,,,,,,,,,,,,,,,,,,,,,,,,,,,,,,,,,,,,,,,,
,,,,,,,,,,,,,,,,,,,,,,,,,,,,,,,,,,,,,,,,,,,,,
,,,,,,,,,,,,,,,,,,,,,,,,,,,,,,,,,,,,,,,,,,,,,
,,,,,,,,,,,,,,,,,,,,,,,,,,,,,,,,,,,,,,,,,,,,,
,,,,,,,,,,,,,,,,,,,,,,,,,,,,,,,,,,,,,,,,,,,,,
,,,,,,,,,,,,,,,,,,,,,,,,,,,,,,,,,,,,,,,,,,,,,
,,,,,,,,,,,,,,,,,,,,,,,,,,,,,,,,,,,,,,,,,,,,,
,,,,,,,,,,,,,,,,,,,,,,,,,,,,,,,,,,,,,,,,,,,,,
,,,,,,,,,,,,,,,,,,,,,,,,,,,,,,,,,,,,,,,,,,,,,
,,,,,,,,,,,,,,,,,,,,,,,,,,,,,,,,,,,,,,,,,,,,,
,,,,,,,,,,,,,,,,,,,,,,,,,,,,,,,,,,,,,,,,,,,,,
,,,,,,,,,,,,,,,,,,,,,,,,,,,,,,,,,,,,,,,,,,,,,
,,,,,,,,,,,,,,,,,,,,,,,,,,,,,,,,,,,,,,,,,,,,,
,,,,,,,,,,,,,,,,,,,,,,,,,,,,,,,,,,,,,,,,,,,,,
,,,,,,,,,,,,,,,,,,,,,,,,,,,,,,,,,,,,,,,,,,,,,
,,,,,,,,,,,,,,,,,,,,,,,,,,,,,,,,,,,,,,,,,,,,,
,,,,,,,,,,,,,,,,,,,,,,,,,,,,,,,,,,,,,,,,,,,,,
,,,,,,,,,,,,,,,,,,,,,,,,,,,,,,,,,,,,,,,,,,,,,
,,,,,,,,,,,,,,,,,,,,,,,,,,,,,,,,,,,,,,,,,,,,,
,,,,,,,,,,,,,,,,,,,,,,,,,,,,,,,,,,,,,,,,,,,,,
,,,,,,,,,,,,,,,,,,,,,,,,,,,,,,,,,,,,,,,,,,,,,
,,,,,,,,,,,,,,,,,,,,,,,,,,,,,,,,,,,,,,,,,,,,,
,,,,,,,,,,,,,,,,,,,,,,,,,,,,,,,,,,,,,,,,,,,,,
,,,,,,,,,,,,,,,,,,,,,,,,,,,,,,,,,,,,,,,,,,,,,
,,,,,,,,,,,,,,,,,,,,,,,,,,,,,,,,,,,,,,,,,,,,,
,,,,,,,,,,,,,,,,,,,,,,,,,,,,,,,,,,,,,,,,,,,,,
,,,,,,,,,,,,,,,,,,,,,,,,,,,,,,,,,,,,,,,,,,,,,
,,,,,,,,,,,,,,,,,,,,,,,,,,,,,,,,,,,,,,,,,,,,,
,,,,,,,,,,,,,,,,,,,,,,,,,,,,,,,,,,,,,,,,,,,,,
,,,,,,,,,,,,,,,,,,,,,,,,,,,,,,,,,,,,,,,,,,,,,
,,,,,,,,,,,,,,,,,,,,,,,,,,,,,,,,,,,,,,,,,,,,,
,,,,,,,,,,,,,,,,,,,,,,,,,,,,,,,,,,,,,,,,,,,,,
,,,,,,,,,,,,,,,,,,,,,,,,,,,,,,,,,,,,,,,,,,,,,
,,,,,,,,,,,,,,,,,,,,,,,,,,,,,,,,,,,,,,,,,,,,,
,,,,,,,,,,,,,,,,,,,,,,,,,,,,,,,,,,,,,,,,,,,,,
,,,,,,,,,,,,,,,,,,,,,,,,,,,,,,,,,,,,,,,,,,,,,
,,,,,,,,,,,,,,,,,,,,,,,,,,,,,,,,,,,,,,,,,,,,,
,,,,,,,,,,,,,,,,,,,,,,,,,,,,,,,,,,,,,,,,,,,,,
,,,,,,,,,,,,,,,,,,,,,,,,,,,,,,,,,,,,,,,,,,,,,
,,,,,,,,,,,,,,,,,,,,,,,,,,,,,,,,,,,,,,,,,,,,,
,,,,,,,,,,,,,,,,,,,,,,,,,,,,,,,,,,,,,,,,,,,,,
,,,,,,,,,,,,,,,,,,,,,,,,,,,,,,,,,,,,,,,,,,,,,
,,,,,,,,,,,,,,,,,,,,,,,,,,,,,,,,,,,,,,,,,,,,,
,,,,,,,,,,,,,,,,,,,,,,,,,,,,,,,,,,,,,,,,,,,,,
,,,,,,,,,,,,,,,,,,,,,,,,,,,,,,,,,,,,,,,,,,,,,
,,,,,,,,,,,,,,,,,,,,,,,,,,,,,,,,,,,,,,,,,,,,,
,,,,,,,,,,,,,,,,,,,,,,,,,,,,,,,,,,,,,,,,,,,,,
,,,,,,,,,,,,,,,,,,,,,,,,,,,,,,,,,,,,,,,,,,,,,
,,,,,,,,,,,,,,,,,,,,,,,,,,,,,,,,,,,,,,,,,,,,,
,,,,,,,,,,,,,,,,,,,,,,,,,,,,,,,,,,,,,,,,,,,,,
,,,,,,,,,,,,,,,,,,,,,,,,,,,,,,,,,,,,,,,,,,,,,
,,,,,,,,,,,,,,,,,,,,,,,,,,,,,,,,,,,,,,,,,,,,,
,,,,,,,,,,,,,,,,,,,,,,,,,,,,,,,,,,,,,,,,,,,,,
,,,,,,,,,,,,,,,,,,,,,,,,,,,,,,,,,,,,,,,,,,,,,
,,,,,,,,,,,,,,,,,,,,,,,,,,,,,,,,,,,,,,,,,,,,,
,,,,,,,,,,,,,,,,,,,,,,,,,,,,,,,,,,,,,,,,,,,,,
,,,,,,,,,,,,,,,,,,,,,,,,,,,,,,,,,,,,,,,,,,,,,
,,,,,,,,,,,,,,,,,,,,,,,,,,,,,,,,,,,,,,,,,,,,,
,,,,,,,,,,,,,,,,,,,,,,,,,,,,,,,,,,,,,,,,,,,,,
,,,,,,,,,,,,,,,,,,,,,,,,,,,,,,,,,,,,,,,,,,,,,
,,,,,,,,,,,,,,,,,,,,,,,,,,,,,,,,,,,,,,,,,,,,,
,,,,,,,,,,,,,,,,,,,,,,,,,,,,,,,,,,,,,,,,,,,,,
,,,,,,,,,,,,,,,,,,,,,,,,,,,,,,,,,,,,,,,,,,,,,
,,,,,,,,,,,,,,,,,,,,,,,,,,,,,,,,,,,,,,,,,,,,,
,,,,,,,,,,,,,,,,,,,,,,,,,,,,,,,,,,,,,,,,,,,,,
,,,,,,,,,,,,,,,,,,,,,,,,,,,,,,,,,,,,,,,,,,,,,
,,,,,,,,,,,,,,,,,,,,,,,,,,,,,,,,,,,,,,,,,,,,,
,,,,,,,,,,,,,,,,,,,,,,,,,,,,,,,,,,,,,,,,,,,,,
,,,,,,,,,,,,,,,,,,,,,,,,,,,,,,,,,,,,,,,,,,,,,
,,,,,,,,,,,,,,,,,,,,,,,,,,,,,,,,,,,,,,,,,,,,,
,,,,,,,,,,,,,,,,,,,,,,,,,,,,,,,,,,,,,,,,,,,,,
,,,,,,,,,,,,,,,,,,,,,,,,,,,,,,,,,,,,,,,,,,,,,
,,,,,,,,,,,,,,,,,,,,,,,,,,,,,,,,,,,,,,,,,,,,,
,,,,,,,,,,,,,,,,,,,,,,,,,,,,,,,,,,,,,,,,,,,,,
,,,,,,,,,,,,,,,,,,,,,,,,,,,,,,,,,,,,,,,,,,,,,
,,,,,,,,,,,,,,,,,,,,,,,,,,,,,,,,,,,,,,,,,,,,,
,,,,,,,,,,,,,,,,,,,,,,,,,,,,,,,,,,,,,,,,,,,,,
,,,,,,,,,,,,,,,,,,,,,,,,,,,,,,,,,,,,,,,,,,,,,
,,,,,,,,,,,,,,,,,,,,,,,,,,,,,,,,,,,,,,,,,,,,,
,,,,,,,,,,,,,,,,,,,,,,,,,,,,,,,,,,,,,,,,,,,,,
,,,,,,,,,,,,,,,,,,,,,,,,,,,,,,,,,,,,,,,,,,,,,
,,,,,,,,,,,,,,,,,,,,,,,,,,,,,,,,,,,,,,,,,,,,,
,,,,,,,,,,,,,,,,,,,,,,,,,,,,,,,,,,,,,,,,,,,,,
,,,,,,,,,,,,,,,,,,,,,,,,,,,,,,,,,,,,,,,,,,,,,
,,,,,,,,,,,,,,,,,,,,,,,,,,,,,,,,,,,,,,,,,,,,,
